,LATITUDINE,LONGITUDINE,CAP,ASP,Provincia,Citta',Indirizzo,Denominazione,Attivita',Tipo sede
0,38.0845172,13.4250904,90122,PA,Palermo,Palermo,CORSO DEI MILLE 56,CASA DI CURA COSENTINO,Casa di cura,Sede Operativa
1,38.1497653,13.3345738,90167,PA,Palermo,Palermo,VIA AUSONIA 43/45,CENTRO ANDROS ,Day Surgery autonomo,Sede Operativa
2,38.0909085,13.5394179,90017,PA,Palermo,Palermo,VIA ROMA 94,NUOVA CASA DI CURA DEMMA ,Radiologia,Sede Operativa
3,38.1025962,13.392458,90121,PA,Palermo,Palermo,VIA BEN HAUKAL 13,AIAS ONLUS  PALERMO - SEZIONE BEN HAUCAL,Presidi di riabilitazione funzionale di portatori disabilit fisiche psichiche e sensoriali,Sede Operativa
4,38.0842772,13.5029784,90011,PA,Palermo,Belmonte Mezzagno,VIA ANIME SANTE 24,AIAS ONLUS BELMONTE MEZZAGNO,Presidi di riabilitazione funzionale di portatori disabilit fisiche psichiche e sensoriali,Sede Operativa
5,38.0910224,13.3749285,90124,PA,Palermo,Bagheria,VIA DANTE 28,AIAS ONLUS PALERMO - CENTRO BAGHERIA,Presidi di riabilitazione funzionale di portatori disabilit fisiche psichiche e sensoriali,Sede Operativa
6,38.0963939,13.3471836,90128,PA,Palermo,Palermo,VIA GRAMSCI 4/34,AIAS ONLUS PALERMO - CENTRO GRAMSCI,Presidi di riabilitazione funzionale di portatori disabilit fisiche psichiche e sensoriali,Sede Operativa
7,38.1375171,13.321498,90145,PA,Palermo,Palermo,"Via Paruta, n. 47-47/A-47/B",AIAS ONLUS PALERMO - CENTRO PARUTA ,Presidi di riabilitazione funzionale di portatori disabilit fisiche psichiche e sensoriali,Sede Operativa
8,38.1202481,13.3431928,90138,PA,Palermo,Palermo,VIA RAITI 16,AIAS ONLUS PALERMO - CENTRO RAITI,Presidi di riabilitazione funzionale di portatori disabilit fisiche psichiche e sensoriali,Sede Operativa
9,38.1347478,13.3418019,90144,PA,Palermo,Palermo,VIA BERNINI 4,AIAS ONLUS PALERMO - SEZIONE BERNINI,Presidi di riabilitazione funzionale di portatori disabilit fisiche psichiche e sensoriali,Sede Operativa
10,38.1506372,13.0853212,90049,PA,Palermo,Palermo,VIA G. BESIO 73/79,AIAS ONLUS PALERMO - SEZIONE BESIO ,Presidi di riabilitazione funzionale di portatori disabilit fisiche psichiche e sensoriali,Sede Operativa
11,38.1484257,13.3307744,90167,PA,Palermo,Partinico,VIA DE SANTIS S.N.C.,AIAS ONLUS PARTINICO ,Presidi di riabilitazione funzionale di portatori disabilit fisiche psichiche e sensoriali,Sede Operativa
12,37.9048101,13.8157322,90010,PA,Palermo,Palermo,VIALE REGINA MARGHERITA 5,AMBRA STUDIO MEDICO DEI DOTTORI ROBERTO PALERMO VINCENZO AGRIFOGLIO E PAOLA NAPOLI MEDICI E DELLA DOTTSSA ROSANNA CIRIMINNA BIOLOGA,Procreazione Medicalmente Assistita,Sede Operativa
13,38.1303669,13.3556068,90139,PA,Palermo,Palermo,VIA SCIUTI 87/C,AMBULATORIO CARDIOLOGICO DI FRANCO DOTTSSA FIAMMETTA,Cardiologia,Sede Operativa
14,37.96732045,13.180932394082662,90048,PA,Palermo,Terrasini,VIA RUGGERO SETTIMO 113-115-117,AMBULATORIO CARDIOLOGICO DOTT GIANNOLA ANTONINO SAS,Cardiologia,Sede Operativa
15,38.105287,13.3360359,90129,PA,Palermo,Palermo,VIA F. SPECIALE 79,AMBULATORIO CARDIOLOGICO SAS DI RIZZO DOTTSSA ROSA ,Cardiologia,Sede Operativa
16,38.1288976,13.3414639,90145,PA,Palermo,Palermo,LARGO FRANCESCO GARUFI 8,AMBULATORIO DI OSTETRICIA E GINECOLOGIA DELLA DOTTSSA BALDACCHINO MARIA PINA SAS,Ostetricia e ginecologia,Sede Operativa
17,38.040843,13.4598531,90036,PA,Palermo,Palermo,VIA L. SETTEMBRINI 4/A - 6,AMBULATORIO DI OSTETRICIA E GINECOLOGIA DOTTSSA MARIA LETIZIA TOMASINO E C SAS,Ostetricia e ginecologia,Sede Operativa
18,38.1182033,13.3439469,90138,PA,Palermo,Palermo,P.ZZA EUROPA 19/A,AMBULATORIO DIALISI E TERAPIA RENALE SRL,Dialisi,Sede Operativa
19,37.8558959,13.9052586,90020,PA,Palermo,Palermo,VIA NOTARBARTOLO 31,AMBULATORIO MEDICO ODONTOIATRICO DEL DOTT FRANCESCO AMMIRATA,Odontoiatria,Sede Operativa
20,37.7523635,13.2685823,90030,PA,Palermo,Palermo,"Via Enrico Albanese, n. 17",AMBULATORIO OCULISTICO FOCUS SRL,Oculistica e chirurgia ambulatoriale,Sede Operativa
21,38.1532334,13.3347785,90167,PA,Palermo,Palermo,VIA R. WAGNER 9,AMBULATORIO ODONTOIATRICO MEDICI SRLS,Odontoiatria,Sede Operativa
22,37.7010508,13.2631058,90032,PA,Palermo,San Giuseppe Jato,PIAZZA DEL POPOLO 2,AMBULATORIO ODONTOIATRICO CAROLLO DEI DOTTORI CAROLLO GASPARE E MARIO SAS,Odontoiatria,Sede Operativa
23,38.0780059,13.2838763,90046,PA,Palermo,Palermo,VIA E. BERNABEI 19,AMBULATORIO ODONTOIATRICO DEL DOTT ALESSANDRO GRANATELLI SAS ,Odontoiatria,Sede Operativa
24,37.721445,13.4392047,90038,PA,Palermo,Palermo,C.SO CALATAFIMI 338,AMBULATORIO ODONTOIATRICO DEL DOTT AMATO SRL,Odontoiatria,Sede Operativa
25,37.9054513,13.4830566,90030,PA,Palermo,Palermo,"Via Claudio Monteverdi, n. 39",AMBULATORIO ODONTOIATRICO DEL DOTT. DAVI' ROSARIO E C. S.A.S.,Odontoiatria,Sede Operativa
26,38.1070596,13.3403882,90129,PA,Palermo,Misilmeri,CORSO GAETANO SCARPELLO 13/15,AMBULATORIO ODONTOIATRICO DELLA DOTTORESSA GIULIA LIBERTI & C SAS,Odontoiatria,Sede Operativa
27,37.808441,14.0937885,90027,PA,Palermo,Palermo,CORSO FINOCCHIARO APRILE 15,AMBULATORIO ODONTOIATRICO DELLA DOTTSSA VERONICA CAPUTO,Odontoiatria,Sede Operativa
28,38.1247686,13.3547562,90139,PA,Palermo,Belmonte Mezzagno,VIA DON PINO PUGLISI 214 A/B,AMBULATORIO ODONTOIATRICO DI DOTT MALTESE VINCENZO & C SAS,Odontoiatria,Sede Operativa
29,38.1403021,13.1821577,90044,PA,Palermo,Palermo,VIA PIRANDELLO 1,AMBULATORIO ODONTOIATRICO DI DRAGO DOTT FRANCESCO SALVATORE & C SNC,Odontoiatria,Sede Operativa
30,38.1585335,13.1054153,90045,PA,Palermo,Campofiorito,VIA CRISPI 83,AMBULATORIO ODONTOIATRICO DOTT CALIA SAS DI CALIA FRANCESCO & C,Odontoiatria,Sede Operativa
31,38.1532334,13.3347785,90167,PA,Palermo,Palermo,VIA RESUTTANA 352,AMBULATORIO ODONTOIATRICO DOTT CARRILLO MARIA GRAZIA,Odontoiatria,Sede Operativa
32,38.0509455,13.0058662,90041,PA,Palermo,Carini,C.SO GARIBALDI 125,AMBULATORIO ODONTOIATRICO DOTT CESARE GENOVA SRL,Odontoiatria,Sede Operativa
33,38.1507585,13.0855903,90049,PA,Palermo,Palermo,P.ZZA VITT. EMANUELE ORLANDO 6,AMBULATORIO ODONTOIATRICO DOTT GIUSEPPE GARAFFA & C SAS,Odontoiatria,Sede Operativa
34,38.0934615,13.3606994,90124,PA,Palermo,Bisacquino,VIA DECANO DI VINCENTI 3,AMBULATORIO ODONTOIATRICO DOTT LO VOI ANTONIO,Odontoiatria,Sede Operativa
35,38.0541286,13.5321045,90014,PA,Palermo,Monreale,VIA VENERO 109,AMBULATORIO ODONTOIATRICO DOTT SALVATORE VALERIO,Odontoiatria,Sede Operativa
36,38.1229885,13.3569024,90139,PA,Palermo,Prizzi,VIA LIBERTA' 67/A,AMBULATORIO ODONTOIATRICO DOTT SERRADIFALCO ANGELO,Odontoiatria,Sede Operativa
37,38.1002979,13.3234535,90131,PA,Palermo,Villafrati,VIA MAURICI 14/16,AMBULATORIO ODONTOIATRICO DOTTORATO SAS DELLA DOTTSSA DOTTORATO CATERINA,Odontoiatria,Sede Operativa
38,37.9815981,13.685566,90018,PA,Palermo,Palermo,C.SO CALATAFIMI 202,AMBULATORIO ODONTOIATRICO DOTTSSA MARILINA GANDOLFO,Odontoiatria,Sede Operativa
39,37.9025493,13.4303583,90030,PA,Palermo,Petralia Sottana,VIA LIBERTA 7,AMBULATORIO ODONTOIATRICO DOTTSSA NUTRICATO MARIA GRAZIA & C SAS,Odontoiatria,Sede Operativa
40,38.0850685,13.5104216,90011,PA,Palermo,Palermo,P.ZZA CASTELNUOVO 26,AMBULATORIO ODONTOIATRICO DOTTSSA PATRIZIA MOTISI,Odontoiatria,Sede Operativa
41,38.1396964,13.3626491,90142,PA,Palermo,Carini,VIA SANT'ANNA 68,AMBULATORIO ODONTOIATRICO DR PINO ARMENIO,Odontoiatria,Sede Operativa
42,38.1359256,13.3585777,90142,PA,Palermo,Cinisi,CORSO UMBERTO 286,AMBULATORIO ODONTOIATRICO DR VINCENZO DI VITA & C SAS,Odontoiatria,Sede Operativa
43,38.085594,13.5010977,90011,PA,Palermo,Palermo,VIA RESUTTANA 352 B,AMBULATORIO ORL DEL DOTT GIUSEPPE BORSELLINO SAS,Otorinolaringoiatria,Sede Operativa
44,37.7496822,13.5979727,90025,PA,Palermo,Palermo,VIA D. TRENTACOSTE 56,AMICA DENTAL SRL AMBULATORIO ODONTOIATRICO,Odontoiatria,Sede Operativa
45,38.150389,13.3378467,90167,PA,Palermo,Cinisi,P.ZZA SANTOCANALE 4,ANALISI BIOLOGICHE E RADIOIMMOLOGICHE DOTT C VENZA SRL ,Medicina di laboratorio,Sede Operativa
46,38.1002979,13.3234535,90131,PA,Palermo,Balestrate,VIA CRISTOFORO COLOMBO 46/48,ANALISI BIOLOGICHE E RADIOIMMOLOGICHE DOTT C VENZA SRL ,Medicina di laboratorio,Punto Prelievo
47,38.0909085,13.5394179,90017,PA,Palermo,Terrasini,VIA ARCHIMEDE 19/21/23,ANALISI BIOLOGICHE E RADIOIMMUNOLOGICHE DOTT C VENZA SRL,Medicina di laboratorio,Sede Operativa
48,38.0909085,13.5394179,90017,PA,Palermo,Palermo,VIA DELL'ORSA MAGGIORE 122,ANALISI CLINICHE DEL DR SALEMI VINCENZO & C SAS,Medicina di laboratorio,Sede Operativa
49,38.1444971,13.3650629,90142,PA,Palermo,Casteldaccia,VIA CAVOUR 8-8/A,ANALISI CLINICHE DOTT A PANTANO DMP SRL,Medicina di laboratorio,Sede Operativa
50,37.9319815,13.6717657,90012,PA,Palermo,Palermo,VIA RUGGERO SETTIMO 55,ANGIOMEDICA SRL,Cardiologia,Sede Operativa
51,37.9319815,13.6717657,90012,PA,Palermo,Palermo,VIA V. ERRANTE 54 sede operativa e sede legal,ANTOFIN SRL FLORIO,Comunit Terapeutica Assistita,Sede Operativa
52,37.9319815,13.6717657,90012,PA,Palermo,Palermo,CORSO CALATAFIMI 896/E,ARA ASSOCIAZIONE RIABILITAZIONE ASSISTENZA,Presidi di riabilitazione funzionale di portatori disabilit fisiche psichiche e sensoriali,Sede Operativa
53,38.122826,13.3552719,90139,PA,Palermo,Carini,S.S.113 KM 282.400,ARCHIMED SRL,Dialisi,Sede Operativa
54,38.122826,13.3552719,90139,PA,Palermo,Termini Imerese,VIA MOLA SNC,ARESS FABIOLA ONLUS,Presidi di riabilitazione funzionale di portatori disabilit fisiche psichiche e sensoriali,Sede Operativa
55,38.122826,13.3552719,90139,PA,Palermo,Palermo,VIA leonardo da vinci 305/307/309,ARTIFICIAL KIDNEY CENTER SRL,Dialisi,Sede Operativa
56,38.0467688,13.114897,90047,PA,Palermo,Termini Imerese,VIA S. CIMINO,ASS LEGA DEL FILO D'ORO ONLUS,Presidi di riabilitazione funzionale di portatori disabilit fisiche psichiche e sensoriali,Sede Operativa
57,38.0467688,13.114897,90047,PA,Palermo,Castelbuono,C.DA VINZERIA SN,ASS SUOR ROSINA LA GRUA,Presidi di riabilitazione funzionale di portatori disabilit fisiche psichiche e sensoriali,Sede Operativa
58,37.7942921,14.2090897,90024,PA,Palermo,Palermo,VIA RISERVA REALE 7,ASSOCIAZIONE BUON PASTORE ONLUS,Residenza Sanitaria Assistita,Sede Operativa
59,38.1202481,13.3431928,90138,PA,Palermo,Palermo,VIA LIBERTA' 155/A,ASSOCIAZIONE CASA DEI GIOVANI,Strutture riabilitazione ed educative assistenziali per dipendenti sostanze d'abuso,Sede Operativa
60,38.1202481,13.3431928,90138,PA,Palermo,Bagheria,VIA RANTERIA 20,ASSOCIAZIONE CASA DEI GIOVANI,Strutture riabilitazione ed educative assistenziali per dipendenti sostanze d'abuso,Sede Operativa
61,38.1223044,13.3447344,90141,PA,Palermo,Bagheria,VIA MATTARELLA 55,ASSOCIAZIONE CASA DEI GIOVANI,Strutture riabilitazione ed educative assistenziali per dipendenti sostanze d'abuso,Sede Operativa
62,38.1221753,13.3438885,90138,PA,Palermo,Palermo,VIA DON ORIONE 18/A,ASSOCIAZIONE GENITORI SOGGETTI AUTISTICI SOLIDALI AGSAS ONLUS,Centro diurno per soggetti affetti da disturbo autistico,Sede Operativa
63,38.1221753,13.3438885,90138,PA,Palermo,Palermo,VIA MONTEPELLEGRINO 163,ASSOCIAZIONE PADRE PIO ONLUS,Presidi di riabilitazione funzionale di portatori disabilit fisiche psichiche e sensoriali,Sede Operativa
64,38.119487649999996,13.366331455092611,90133,PA,Palermo,Palermo,VIA A. BORRELLI 4,ASSOCIAZIONE PRIMAVERA ONLUS,Presidi di riabilitazione funzionale di portatori disabilit fisiche psichiche e sensoriali,Sede Operativa
65,38.119487649999996,13.366331455092611,90133,PA,Palermo,Bagheria,VIA BAGNERA 14,ATM SRL,Radioterapia,Sede Operativa
66,37.9319815,13.6717657,90012,PA,Palermo,Lercara Friddi,VIA DUCA DEGLI ABRUZZI 32/34,BATTAGLINO MARIA GRAZIA & C SAS,Medicina di laboratorio,Sede Operativa
67,37.9147938,13.7621684,90020,PA,Palermo,Partinico,VIA G. RENI 10-14-16,BETA SRL,Radiologia,Sede Operativa
68,37.9147938,13.7621684,90020,PA,Palermo,Palermo,VIA TRINACRIA 28,BIOANALISI CENTER DI MAZZARA MICHELE E SCHILLACI ADRIANA SNC,Medicina di laboratorio,Sede Operativa
69,38.1101784,13.3663237,90140,PA,Palermo,Palermo,VIA G. PUCCINI 70,BIODENT SRL,Odontoiatria,Sede Operativa
70,38.0363186,13.4566806,90036,PA,Palermo,Palermo,VIA MARIO VACCARO 4,BIODIAGNOSTICA DI A LIBERATORE & C SAS,Medicina di laboratorio,Sede Operativa
71,46.3144754,11.0480288,38093,PA,Palermo,Palermo,VIA R. LORIA 70,BIODIAGNOSTICA LP DEL DOTT G D LAURENZANO SAS,Medicina di laboratorio,Sede Operativa
72,37.9313181,14.0886076,90013,PA,Palermo,Palermo,C.SO CALATAFIMI 977,BRONZINO DR VINCENZO - AMBULATORIO DI CARDIOLOGIA,Cardiologia,Sede Operativa
73,38.1050344,13.3529995,90128,PA,Palermo,Palermo,VIA ROMA 386,CALDERONE & CALDERONE SNC DI PISCITELLO CONCETTA & C ,Ortopedia,Sede Operativa
74,37.9860638,13.8861887,90010,PA,Palermo,Palermo,VIA M.SE DI VILLABIANCA 120,CAPP COOPERATIVA SOCIALE,Presidi di riabilitazione funzionale di portatori disabilit fisiche psichiche e sensoriali,Sede Operativa
75,37.7473167,13.8280374,90029,PA,Palermo,Palermo,VIA ROMA 386,CAPPELLINO & CAPPELLINO SNC DEL DOTT CAPPELLINO GAETANO & C,Radiologia,Sede Operativa
76,38.1497653,13.3345738,90167,PA,Palermo,Palermo,VIA AMMIRAGLIO RIZZO 72/A,CARDIOLAB SRL,Cardiologia,Sede Operativa
77,38.0793505,13.516125,90011,PA,Palermo,Palermo,VIALE REGIONE SICILIANA 1571,CASA DI CURA MARIA ELEONORA HOSPITAL,Casa di cura,Sede Operativa
78,38.0432623,13.5509863,90010,PA,Palermo,Palermo,V.LE REGIONE SICILIANA 1470,CASA DI CURA SERENA ,Attivit ambulatoriale case di cura private,Sede Operativa
79,37.721848,13.4318971,90038,PA,Palermo,Palermo,V.LE REGIONE SICILIANA 1470,CASA DI CURA SERENA ,Casa di cura,Sede Operativa
80,38.0793505,13.516125,90011,PA,Palermo,Palermo,Via Villareale 54,CASA DI CURA CANDELA ,Attivit ambulatoriale case di cura private,Sede Operativa
81,38.1315067,13.344867,90143,PA,Palermo,Palermo,VIA VILLAREALE 54 ,CASA DI CURA CANDELA ,Casa di cura,Sede Operativa
82,38.109357,13.3090986,90136,PA,Palermo,Palermo,VIA VILLAREALE 54 ,CASA DI CURA CANDELA ,Procreazione Medicalmente Assistita,Sede Operativa
83,38.1330611,13.3178033,90145,PA,Palermo,Partinico,VIA ROMA 195,CASA DI CURA IGEA ,Attivit ambulatoriale case di cura private,Sede Operativa
84,38.122826,13.3552719,90139,PA,Palermo,Partinico,VIA ROMA 195,CASA DI CURA IGEA ,Casa di cura,Sede Operativa
85,37.9815182,13.7014674,90018,PA,Palermo,Palermo,VIA S.LORENZO COLLI 312/D,CASA DI CURA LA MADDALENA,Attivit ambulatoriale case di cura private,Sede Operativa
86,38.0492133,13.23435,90046,PA,Palermo,Palermo,VIA S.LORENZO COLLI 312/D,CASA DI CURA LA MADDALENA,Casa di cura,Sede Operativa
87,38.1283275,13.3519101,90139,PA,Palermo,Palermo,VIA CORDOVA 64,CASA DI CURA LATTERI,Casa di cura,Sede Operativa
88,38.1255109,13.3475419,90141,PA,Palermo,Palermo,V.LE REGINA MARGHERITA 25,CASA DI CURA MACCHIARELLA ,Attivit ambulatoriale case di cura private,Sede Operativa
89,38.098975,13.3179682,90131,PA,Palermo,Palermo,VIALE REGINA MARGHERITA 25,CASA DI CURA MACCHIARELLA ,Casa di cura,Sede Operativa
90,38.1400099,13.1866578,90044,PA,Palermo,Palermo,VIA DANTE 330,CASA DI CURA NOTO PASQUALINO ,Casa di cura,Sede Operativa
91,38.0781567,13.5072563,90011,PA,Palermo,Palermo,VIA SPALLITTA 8,CASA DI CURA TORINA ,Attivit ambulatoriale case di cura private,Sede Operativa
92,38.0758007,13.4408703,90039,PA,Palermo,Palermo,VIA SPALLITTA 18,CASA DI CURA TORINA ,Casa di cura,Sede Operativa
93,38.1581779,13.1062953,90045,PA,Palermo,Palermo,P.ZZA FONDERIA 23,CASA DI CURA TRIOLO-ZANCLA,Attivit ambulatoriale case di cura private,Sede Operativa
94,38.1449318,13.361636,90142,PA,Palermo,Palermo,PIAZZA FONDERIA 23,CASA DI CURA TRIOLO-ZANCLA,Casa di cura,Sede Operativa
95,38.1580891,13.1800103,90044,PA,Palermo,Palermo,VIA M.SE DI VILLABIANCA 6,CASA DI CURA VILLA MARGHERITA ,Attivit ambulatoriale case di cura private,Sede Operativa
96,38.1585581,13.3267712,90146,PA,Palermo,Palermo,VIA M.SE DI VILLABIANCA 6,CASA DI CURA VILLA MARGHERITA ,Casa di cura,Sede Operativa
97,38.0506277,13.1213679,90047,PA,Palermo,Palermo,VIALE REGIONE SICILIANA 1470,CASA DI CURA VLLA SERENA ,Radiologia,Sede Operativa
98,37.9815182,13.7014674,90018,PA,Palermo,Palermo,VIA D'ASARO 48,CASA DI CURE ORESTANO ,Attivit ambulatoriale case di cura private,Sede Operativa
99,38.0773655,13.5169364,90011,PA,Palermo,Palermo,VIA D'ASARO 48,CASA DI CURE ORESTANO ,Casa di cura,Sede Operativa
100,37.9800921,13.7024115,90018,PA,Palermo,Partinico,VIA LIBERTA' 46,CASA FAMIGLIA ROSETTA ONLUS - PG PUGLISI ,Casa Alloggio per Malati di Aids,Sede Operativa
101,38.2000056,13.2786113,90148,PA,Palermo,Palermo,P.ZZA GIULIO CESARE 44,CENTRO ANALISI CLINICHE BATTERIOLOGICHE IMMUNOLOGICHE - RADIOIMMUNOLOGICHE VALENTINO SRL,Medicina di laboratorio,Sede Operativa
102,38.0770272,13.2833741,90046,PA,Palermo,Monreale,SALITA S. CRISTOFORO 9,CENTRO ANALISI CLINICHE DEI DOTTRI G M GIORDANO E S SANTINO SNC,Medicina di laboratorio,Sede Operativa
103,38.1275985,13.2939484,90136,PA,Palermo,Misilmeri,VIA TRAINA 18,CENTRO ANALISI CLINICHE DI LA LIA G & C SAS,Medicina di laboratorio,Sede Operativa
104,38.1197161,13.3413235,90138,PA,Palermo,Bagheria,VIA DANTE PROLUNGAMENTO N.115,CENTRO ANALISI CLINICHE DOTTSSA BUTERA DOROTEA MARIA E C SNC,Medicina di laboratorio,Sede Operativa
105,38.1347478,13.3418019,90144,PA,Palermo,Palermo,VIA GRAMSCI N. 39-43 ,CENTRO ANALISI CLINICHE MADONIE SCARL,Medicina di laboratorio - Aggregazione,Sede Operativa
106,38.0866098,13.5145184,90011,PA,Palermo,,via Gramsci 39,CENTRO ANALISI CLINICHE MADONIE SCARL,Medicina di laboratorio - Aggregazione,Punto di accesso
107,38.1348435,13.3543796,90143,PA,Palermo,Castelbuono,via Principe Umberto 5/bis,CENTRO ANALISI CLINICHE MADONIE SCARL,Medicina di laboratorio - Aggregazione,Punto di accesso
108,38.1253584,13.3356628,90145,PA,Palermo,Palermo,VIA MONTEGRAPPA 118,CENTRO ANALISI CLINICHE S ROSALIA DELLA DOTTSSA MAIORANA GIUSEPPA & C SNC,Medicina di laboratorio,Sede Operativa
109,38.0425472,13.1233391,90047,PA,Palermo,Campofelice di Roccella,VIA DE GASPERI 3,CENTRO ANALISI CLINICHE SNC DI MENDOLA GAETANO GIUSEPPE & MILLONZI ANGELO SNC,Medicina di laboratorio,Sede Operativa
110,38.0506277,13.1213679,90047,PA,Palermo,Valledolmo,VIA CADORNA 54,CENTRO ANALISI CLINICHE VALLEDOLMO,Medicina di laboratorio,Sede Operativa
111,38.1428042,13.3336854,90144,PA,Palermo,Palermo,VIA ORETO NUOVA 440/A,CENTRO ANALISI E DIAGNOSTICA CLINICA SRL,Medicina di laboratorio,Sede Operativa
112,38.1042473,13.3328641,90129,PA,Palermo,Palermo,VIA AUSONIA 43/45,CENTRO ANDROS ,Procreazione Medicalmente Assistita,Sede Operativa
113,38.1247686,13.3547562,90139,PA,Palermo,Palermo,VIA DE GASPERI 53/67,CENTRO BIOMEDICO SCARL,Endocrinologia,Sede Operativa
114,38.0810907,13.4382683,90039,PA,Palermo,Palermo,via De Gasperi 53,CENTRO BIOMEDICO SCARL,Medicina di laboratorio - Aggregazione,Punto di accesso
115,38.1078829,13.3297992,90132,PA,Palermo,Altavilla Milicia,via Piave 36,CENTRO BIOMEDICO SCARL,Medicina di laboratorio - Aggregazione,Punto di accesso
116,38.1532334,13.3347785,90167,PA,Palermo,Partinico,via della Regione 3,CENTRO BIOMEDICO SCARL,Medicina di laboratorio - Aggregazione,Punto di accesso
117,38.0780059,13.2838763,90046,PA,Palermo,Prizzi,corso Umberto I 23,CENTRO BIOMEDICO SCARL,Medicina di laboratorio - Aggregazione,Punto di accesso
118,38.1123965,13.3669092,90140,PA,Palermo,Caccamo,piazza S. Elia 16,CENTRO BIOMEDICO SCARL,Medicina di laboratorio - Aggregazione,Punto di accesso
119,37.9943434,13.2841697,90037,PA,Palermo,Palermo,VIA ALCIDE DE GASPERI 53/67,CENTRO BIOMEDICO SCARL ,Dermatologia,Sede Operativa
120,38.133915,13.3539675,90139,PA,Palermo,Palermo,VIA A. DE GASPERI N. 53/67,CENTRO BIOMEDICO SCARL ,Medicina di laboratorio - Aggregazione,Sede Operativa
121,38.0757492,13.4505272,90039,PA,Palermo,Palermo,VIA DOMENICO COSTANTINO 17,CENTRO CLINICO DERMO-COSMETOLOGICO SAS DI COSTA ANTONINA,Dermatologia,Sede Operativa
122,37.7205617,13.4330218,90038,PA,Palermo,Palermo,P.ZZA PIETRO MICCA N. 6,CENTRO CLINICO DIAGNOSTICO SAN MARTINO SRL,Medicina di laboratorio,Sede Operativa
123,38.141252,13.3520438,90143,PA,Palermo,Palermo,VIA MAMMANA 88,CENTRO DERMATOLOGICO LISTRO SRL ,Dermatologia,Sede Operativa
124,38.1267413,13.3280454,90145,PA,Palermo,Palermo,VIA VILLAREALE 54 ,CENTRO DI BIOLOGIA DELLA RIPRODUZIONE ,Procreazione Medicalmente Assistita,Sede Operativa
125,38.0941008,13.3739662,90124,PA,Palermo,Termini Imerese,CORSO UMBERTO E MARGHERITA N 16,CENTRO DI FISIOKINESITERAPIA AVANZATA SRL,Presidio ambulatoriali recupero riabilitazione,Sede Operativa
126,38.144149,13.3343979,90144,PA,Palermo,Palermo,P.ZZA P.PE CAMPOREALE 27,CENTRO DI FISIOKINESITERAPIA EMMOLA SRL,Presidio ambulatoriali recupero riabilitazione,Sede Operativa
127,38.1028446,13.3697872,90124,PA,Palermo,Monreale,VIA PROVINCIALE 46 PIOPPO,CENTRO DI FISIOTERAPIA SPAZIO VITALE SRL,Presidi di riabilitazione funzionale di portatori disabilit fisiche psichiche e sensoriali,Sede Operativa
128,38.0987795,13.4046941,90121,PA,Palermo,Bagheria,SS 113 KM 246,CENTRO DI MEDICINA NUCLEARE S GAETANO SRL,Medicina nucleare,Sede Operativa
129,37.8167477,13.2952115,90034,PA,Palermo,Palermo,VIA AGRIGENTO 5,CENTRO DI MEDICINA NUCLEARE S.R.L.,Medicina nucleare,Sede Operativa
130,46.3144754,11.0480288,38093,PA,Palermo,Palermo,VIA INGEGNEROS 106,CENTRO DI NEFROLOGIA E DIALISI SRL,Dialisi,Sede Operativa
131,38.1497653,13.3345738,90167,PA,Palermo,Palermo,VIA CUSMANO 10,CENTRO DI RADIODIAGNOSTICA SRL,Radiologia,Sede Operativa
132,38.1261152,13.3528832,90141,PA,Palermo,Palermo,Via Tommaso Marcellini 61/A,CENTRO DI RADIOLOGIA MEDICA SRL,Radiologia,Sede Operativa
133,38.1400099,13.1866578,90044,PA,Palermo,Bagheria,VIA B. MATTARELLA 30,CENTRO DI RADIOLOGIA SRL,Radiologia,Sede Operativa
134,38.044018,13.1167768,90047,PA,Palermo,Palermo,VIA G. E. DI BLASI 12,CENTRO DIACONALE LA NOCE ISTITUTO VALDESE,Presidi di riabilitazione funzionale di portatori disabilit fisiche psichiche e sensoriali,Sede Operativa
135,38.0776556,13.4394564,90039,PA,Palermo,Carini,C.SO ITALIA 158/160,CENTRO DIAGNOSTICA PER IMMAGINI SRL,Radiologia,Sede Operativa
136,38.0461944,13.1197651,90047,PA,Palermo,Ficarazzi,PIAZZA S.FRANCESCO ,CENTRO DIAGNOSTICO - ASSOCIAZIONE TRA PROFESSIONISTI,Medicina di laboratorio,Sede Operativa
137,37.9625208,13.1755945,90040,PA,Palermo,Bagheria,C.SO BUTERA 571,CENTRO DIAGNOSTICO ANALISI CLINICHE DI STABILE ROCCO & C SAS,Medicina di laboratorio,Sede Operativa
138,38.1099253,13.3791441,90123,PA,Palermo,Castelbuono,VIA VITT. EMANUELE 91,CENTRO DIAGNOSTICO CLINICO EMATOLOGICO SPEM DI FIASCONARO CONCETTA & C SNC,Medicina di laboratorio,Sede Operativa
139,37.8207118,13.8884313,90022,PA,Palermo,Palermo,VIA GEN. CANTORE 21,CENTRO EMODIALITICO MERIDIONALE SRL,Dialisi,Sede Operativa
140,37.8207118,13.8884313,90022,PA,Palermo,Villabate,V.LE EUROPA 62/A,CENTRO EUROPA DI GOTTARDO AMEDEO & C SNC,Presidio ambulatoriali recupero riabilitazione,Sede Operativa
141,38.0939871,13.3456163,90125,PA,Palermo,Cinisi,VIA VENUTI 302,CENTRO FISIOKINESITERAPICO SAS DEL DOTT MALTESE,Presidio ambulatoriali recupero riabilitazione,Sede Operativa
142,38.2000056,13.2786113,90148,PA,Palermo,Palermo,VIA RUGGERO MARTURANO 26,CENTRO FISIOTERAPICO DI BENEDETTO CUCCIO SRL ,Presidio ambulatoriali recupero riabilitazione,Sede Operativa
143,38.0868071,13.3447485,90125,PA,Palermo,Carini,VIA NAZIONALE 397,CENTRO FISIOTERAPICO MUSARRA SRL,Presidio ambulatoriali recupero riabilitazione,Sede Operativa
144,38.1543404,13.3289066,90146,PA,Palermo,Palermo,VIA INGEGNEROS 58,CENTRO LING DI RIEDUCAZIONE NEUROMOTORIA E DI FISIOTERAPIA SRL,Presidio ambulatoriali recupero riabilitazione,Sede Operativa
145,38.1249253,13.3483667,90141,PA,Palermo,Misilmeri,VIA V. GUASTELLA 14,CENTRO MEDICO DI FISIOKINESI TERAPIA E SPORT (BODY CLUB) DI GILIA GIULIO SAS,Presidio ambulatoriali recupero riabilitazione,Sede Operativa
146,38.1241615,13.3354668,90145,PA,Palermo,Partinico,VIA PASCAL 11,CENTRO MEDICO DI ORTOPEDIA E FISIOKINESITERAPIA SRL,Presidio ambulatoriali recupero riabilitazione,Sede Operativa
147,38.108037,13.3553094,90127,PA,Palermo,Termini Imerese,CORSO UMBERTO E MARGHERITA 13/15,CENTRO MEDICO DIAGNOSTICO TERAPEUTICO SRL,Radiologia,Sede Operativa
148,37.9943434,13.2841697,90037,PA,Palermo,Monreale,VIA P. NOVELLI 18,CENTRO MEDICO IPPOCRATE SNC DI MICELI ELISABETTA & C,Odontoiatria,Sede Operativa
149,38.0671314,13.0375545,90040,PA,Palermo,Palermo,VIA DE SPUCHES 22,CENTRO MEDICO MANTIA SRL,Presidio ambulatoriali recupero riabilitazione,Sede Operativa
150,38.0504365,13.0038559,90041,PA,Palermo,Termini Imerese,VIA DEL PROGRESSO 2 ,CENTRO MEDICO NEFROLOGICO SRL,Dialisi,Sede Operativa
151,38.1256474,13.351834,90141,PA,Palermo,Lercara Friddi,VIA C.A. DALLA CHIESA SNC - C.DA S.ANNA,CENTRO MEDICO NEFROLOGICO SRL,Dialisi,Sede Operativa
152,38.0427963,13.1193411,90047,PA,Palermo,Palermo,VIA DAMMUSO 151,CENTRO MEDICO ODONTOIATRICO DOTT LENZITTI FEDERICO & C SAS,Odontoiatria,Sede Operativa
153,38.1062779,13.3395201,90129,PA,Palermo,Monreale,VIA XVI MARZO 1,CENTRO MEDICO ODONTOIATRICO ORLANDO DI ORLANDO SEBASTIANO E C SAS,Odontoiatria,Sede Operativa
154,38.1170293,13.3456051,90138,PA,Palermo,Marineo,VIA DELLA SPIGA 15/17,CENTRO MEDICO SOCRATES SRL,Presidio ambulatoriali recupero riabilitazione,Sede Operativa
155,38.0530645,13.5298287,90014,PA,Palermo,Palermo,LARGO CEFALU' 8,CENTRO MINERVA ANALISI CLINICHE SRL,Medicina di laboratorio,Sede Operativa
156,37.9053862,13.4849187,90030,PA,Palermo,Palermo,PIAZZA PRINCIPE DI CAMPOREALE 26/D,CENTRO OCULISTICO LA MANTIA DOTT LA MANTIA & C SAS ,Oculistica,Sede Operativa
157,37.921313,13.5663143,90020,PA,Palermo,Palermo,VIA SCIUTI 102/F,CENTRO OCULISTICO DOMUS SRL,Oculistica e chirurgia ambulatoriale,Sede Operativa
158,38.1082376,13.3612589,90127,PA,Palermo,Bagheria,VIA CICERONE 28,CENTRO OCULISTICO EUCLIDE SAS DI MONTALTO FRANCESCO PAOLO E C,Oculistica e chirurgia ambulatoriale,Sede Operativa
159,38.1253584,13.3356628,90145,PA,Palermo,Termini Imerese,VIA L. STURZO 8,CENTRO OCULISTICO LO BIANCO SAS DI GIOVANNI LO BIANCO,Oculistica e chirurgia ambulatoriale,Sede Operativa
160,38.1314425,13.319691,90145,PA,Palermo,Palermo,VIA DUCA DELLA VERDURA 4,CENTRO OCULISTICO MOAVERO DI MARCELLO MOAVERO & C SAS,Oculistica,Sede Operativa
161,38.1281491,13.3516338,90141,PA,Palermo,Palermo,VIA CATALDO PARISIO 95,CENTRO ODONTOIATRICO BISCONTI DI LEONARDO DELLA DOTT.SSA FEDERICA DI LEONARDO SAS,Odontoiatria,Sede Operativa
162,38.1281491,13.3516338,90141,PA,Palermo,Partinico,VIA BENEVENTO 10,CENTRO ODONTOIATRICO DEL DOTT GAGLIO FRANCESCO & C SAS,Odontoiatria,Sede Operativa
163,38.1344534,13.3460706,90143,PA,Palermo,Partinico,VIA PASCAL 3,CENTRO ODONTOIATRICO DEL DOTT GIACOMO RAPPA & C SAS,Odontoiatria,Sede Operativa
164,38.0484136,13.0055283,90041,PA,Palermo,Palermo,VIA P. SCAGLIONE 87,CENTRO ODONTOIATRICO DEL DOTT GIROLAMO TURANO CAMPELLO SAS,Odontoiatria,Sede Operativa
165,37.8193156,13.2946125,90034,PA,Palermo,Palermo,V.LE DELLE ALPI 16,CENTRO ODONTOIATRICO DEL DOTT MAURIZIO FULVIO PURPURA & C SAS,Odontoiatria,Sede Operativa
166,37.7910868,14.1120907,90026,PA,Palermo,Montelepre,VIA F. RICCOBONO 40,CENTRO ODONTOIATRICO DEL DOTT RAPPA GIACOMO E C SAS,Odontoiatria,Sede Operativa
167,38.1352563,13.3451629,90143,PA,Palermo,Palermo,CORSO CALATAFIMI 631,CENTRO ODONTOIATRICO DEL DOTT VINCENZO TAMBURELLO & C SNC,Odontoiatria,Sede Operativa
168,38.1401332,13.3277434,90146,PA,Palermo,Palermo,P.ZZA CASTELNUOVO 26/A,CENTRO ODONTOIATRICO DEL DR ROMANO VITO SAS,Odontoiatria,Sede Operativa
169,38.13246,13.3501331,90141,PA,Palermo,Villabate,VIA GIULIO CESARE 44,CENTRO ODONTOIATRICO DELLA DOTTSSA MARIA MADDALENA LUCIDO SNC,Odontoiatria,Sede Operativa
170,38.1221612,13.3542638,90141,PA,Palermo,Palermo,VIA TASCA LANZA 26,CENTRO ODONTOIATRICO DELLA DSSA GRAZIA CONCETTA STIMOLO SAS,Odontoiatria,Sede Operativa
171,38.1760688,13.2416038,90040,PA,Palermo,Palermo,VIA RESUTTANA 352,CENTRO ODONTOIATRICO DI ANSELMO SALVATORE SAS,Odontoiatria,Sede Operativa
172,38.1172024,13.346473,90138,PA,Palermo,Monreale,VIA VENERO 120,CENTRO ODONTOIATRICO DI FAZIO SAS DEL DOTT DI FAZIO FILIPPO & C,Odontoiatria,Sede Operativa
173,38.1314624,13.1823064,90044,PA,Palermo,Palermo,VIA GORIZIA 22,CENTRO ODONTOIATRICO DI FOLLARI SAS DI UMBERTO FOLLARI,Odontoiatria,Sede Operativa
174,38.0371177,13.4589979,90036,PA,Palermo,Piana degli Albanesi,VIA MATTEOTTI 40,CENTRO ODONTOIATRICO DI GRECO SAS EL DR GIACOMO BRUNO GRECO & C,Odontoiatria,Sede Operativa
175,37.9815981,13.685566,90018,PA,Palermo,Palermo,VIA VENTURA 1,CENTRO ODONTOIATRICO DI LEO SAS DI GIUSEPPE DI LEO,Odontoiatria,Sede Operativa
176,38.1518456,13.3356114,90167,PA,Palermo,Ciminna,P.ZZA MATTARELLA 13,CENTRO ODONTOIATRICO DOTT BRANCATO SALVATORE SNC,Odontoiatria,Sede Operativa
177,38.1031479,13.3668598,90124,PA,Palermo,Palermo,VIA LA MARMORA 75,CENTRO ODONTOIATRICO DOTT NICOLO' MALTESE E C SNC,Odontoiatria,Sede Operativa
178,37.7037525,13.2591235,90032,PA,Palermo,Palermo,C.SO CAMILLO FINOCCHIARO APRILE 124,CENTRO ODONTOIATRICO DOTT S LA TORRE SNC,Odontoiatria,Sede Operativa
179,37.6954635,14.11249765150913,90020,PA,Palermo,Palermo,VIA GIUSEPPE ALESSI 44 ,CENTRO ODONTOIATRICO GRIFFO SAS DELLA DOTTSSA MARCELLA GRIFFO & C,Odontoiatria,Sede Operativa
180,37.972886,13.1863285,90048,PA,Palermo,Torretta,VIA A. DE GASPERI 41,CENTRO ODONTOIATRICO JUST SMILE SAS DEL DOTT TINERVIA GIUSEPPE,Odontoiatria,Sede Operativa
181,38.1214741,13.3552022,90139,PA,Palermo,Palermo,VIA ALEARDO ALEARDI 18,CENTRO ODONTOIATRICO POLIVALENTE SNC DI MICELI BENEDETTO,Odontoiatria,Sede Operativa
182,38.146355,13.3355653,90144,PA,Palermo,Palermo,VIA PAOLO ORSI 3,CENTRO ODONTOIATRICO SACCONE SAS DELLA DRSSA SACCONE ROBERTA & C,Odontoiatria,Sede Operativa
183,38.0968679,13.4254716,90122,PA,Palermo,Palermo,VIA GENERALE DALLA CHIESA 15,CENTRO ODONTOIATRICO SAS DI SCORSONE DANIELE & C,Odontoiatria,Sede Operativa
184,38.0837956,13.3577254,90125,PA,Palermo,Palermo,VIA G. PREZZOLINI 45 (GIA VIA NUOVA 71),CENTRO ODONTOIATRICO SCAFFIDI DELLA DOTTORESSA SCAFFIDI ABBATE LOREDANA SAS,Odontoiatria,Sede Operativa
185,38.0840107,13.503869,90011,PA,Palermo,Palermo,VIA GEN D.CHINNICI 34,CENTRO ODONTOIATRICO SICILIANO COS DI DE CASTRO LUCIA & C SNC ,Odontoiatria,Sede Operativa
186,38.0861664,13.5237868,90017,PA,Palermo,Palermo,VIA MARCHE 16 ,CENTRO ODONTOIATRICO SICILIANO SRL,Odontoiatria,Sede Operativa
187,38.0755204,13.4481711,90039,PA,Palermo,Palermo,VIA ORETO 305,CENTRO ODONTOIATRICO SPATAFORA SAS DI SPATAFORA M TERESA,Odontoiatria,Sede Operativa
188,37.9642444,13.4573788,90030,PA,Palermo,Palermo,VIA SPERONE 6 ,CENTRO ODONTOIATRICO TERESI SAS DI TERESI G,Odontoiatria,Sede Operativa
189,38.1460787,13.3499448,90143,PA,Palermo,Partinico,VIA COSMA E DAMIANO 11,CENTRO ORTOPEDICO FISIOTERAPICO SRL,Presidio ambulatoriali recupero riabilitazione,Sede Operativa
190,37.9058344,13.8138858,90010,PA,Palermo,Palermo,VIA A. PACINOTTI 34,CENTRO PROCREAZIONI ASSISTITE DEMETRA ,Procreazione Medicalmente Assistita,Sede Operativa
191,37.918545,13.9375252,90013,PA,Palermo,Palermo,VIA P.PE DI VILLAFRANCA 50/B,CENTRO PSICOFISICO E DI FKT SRL,Presidio ambulatoriali recupero riabilitazione,Sede Operativa
192,38.1268287,13.3489411,90141,PA,Palermo,Misilmeri,VIA MACHIAVELLI 41,CENTRO RADIOLOGICO DEL DOTT ANTONINO POLIZZI SRL,Radiologia,Sede Operativa
193,38.1347478,13.3418019,90144,PA,Palermo,Partinico,VIA V.EMANUELE 18,CENTRO RADIOLOGICO DEL DOTT LEONARDO SANZONE & C SAS,Radiologia,Sede Operativa
194,38.1428042,13.3336854,90144,PA,Palermo,Corleone,VIA SANTA LUCIA 35,CENTRO SERVIZI SANITARI ITALIANI DI SIRAGUSA N GIUSEPPE SRL,Dialisi,Sede Operativa
195,37.9635601,13.4573547,90030,PA,Palermo,,VIA VITALIANO BRANCATI SN,CENTRO SICILIANO DI NEFROLOGIA E DIALISI SRL,Dialisi,Sede Operativa
196,38.1144917,13.3387792,90132,PA,Palermo,Palermo,VIA AUSONIA 39,CEOPAR ONLUS,Presidi di riabilitazione funzionale di portatori disabilit fisiche psichiche e sensoriali,Sede Operativa
197,38.1523242,13.3335848,90167,PA,Palermo,Corleone,VIA DON G. COLLETTO 17,CFC CENTRO FISIOTERAPICO DEL CORLEONESE SRL,Poliambulatorio,Sede Operativa
198,38.1347478,13.3418019,90144,PA,Palermo,Palermo,VIA PARISI 40,CHECK UP SRL,Medicina di laboratorio,Sede Operativa
199,38.1188694,13.3276974,90135,PA,Palermo,Carini,corso Italia 110,CLERALAB SCARL,Medicina di laboratorio - Aggregazione,Punto di accesso
200,38.1099253,13.3791441,90123,PA,Palermo,Partinico,VIA ZANGARA 1,CLINICA DENTALE DEL DR ERASMO ENIA & C SAS,Odontoiatria,Sede Operativa
201,38.1347478,13.3418019,90144,PA,Palermo,Palermo,VIA DE GASPERI 81,CLINICAL COURSE SRL AMBULATORIO DI NEUROLOGIA,Neurologia,Sede Operativa
202,38.1101784,13.3663237,90140,PA,Palermo,Villabate,VIA PASCOLI 1,CLINICAL COURSE SRL LABORATORIO ANALISI CLINICHE MICROBIOLOGICHE,Medicina di laboratorio,Sede Operativa
203,37.9862213,13.6994964,90018,PA,Palermo,Palermo,VIA F. BARACCA 39,COMUNITA' EDUCATIVA DI BAIDA GESTITO DALL' ENTE CONFRATERNITA S MARIA DEL SOCCORSO ALLA BANDIERA ,Presidi di riabilitazione funzionale di portatori disabilit fisiche psichiche e sensoriali,Sede Operativa
204,46.3144754,11.0480288,38093,PA,Palermo,Partinico,VIA E. FERMI 24,CONSORZIO BIOGENESI SC A RL,Medicina di laboratorio - Aggregazione,Sede Operativa
205,37.7888909,14.1062376,90026,PA,Palermo,Partinico,via Matteotti 4 angolo via Ragona 55,CONSORZIO BIOGENESI SC A RL,Medicina di laboratorio - Aggregazione,Punto di accesso
206,38.1042553,13.3241522,90132,PA,Palermo,Partinico,via Venezia 9-11,CONSORZIO BIOGENESI SC A RL,Medicina di laboratorio - Aggregazione,Punto di accesso
207,38.1022207,13.35364,90128,PA,Palermo,Montelepre,via Castrenze di Bella 72,CONSORZIO BIOGENESI SC A RL,Medicina di laboratorio - Aggregazione,Punto di accesso
208,38.1025493,13.3886181,90121,PA,Palermo,Borgetto,via P. Nenni 37-37/A,CONSORZIO BIOGENESI SC A RL,Medicina di laboratorio - Aggregazione,Punto di accesso
209,38.0443009,13.1188574,90047,PA,Palermo,Partinico,via E. Fermi 24,CONSORZIO BIOGENESI SC A RL,Medicina di laboratorio - Aggregazione,Punto di accesso
210,38.1229885,13.3569024,90139,PA,Palermo,San Cipirello,VIA ROMA N 238,CONSORZIO BIOGENESI SC A RL,Medicina di laboratorio - Aggregazione,Punto di accesso
211,38.1408683,13.3556346,90142,PA,Palermo,Palermo,via Messina Marine 315,CONSORZIO LABORATORI RIUNITI CARACCIOLO SRL,Medicina di laboratorio - Aggregazione,Punto di accesso
212,38.1223044,13.3447344,90141,PA,Palermo,Palermo,via Ugdulena 21,CONSORZIO LABORATORI RIUNITI CARACCIOLO SRL,Medicina di laboratorio - Aggregazione,Punto di accesso
213,38.0796932,13.5150685,90011,PA,Palermo,Palermo,VIA UGDULENA N. 21,CONSORZIO LABORATORI RIUNITI CARACCIOLO SRL ,Medicina di laboratorio - Aggregazione,Sede Operativa
214,38.0857909,13.5151256,90011,PA,Palermo,Palermo,"Via G. La Farina, n. 13/c",CONSORZIO LABORATORI RIUNITI GAZIANO CAPUANO SC A RL,Medicina di laboratorio - Aggregazione,Sede Operativa
215,38.0739445,13.4446963,90039,PA,Palermo,Palermo,via Verdinois 14/16,CONSORZIO LABORATORI RIUNITI GAZIANO CAPUANO SC A RL,Medicina di laboratorio - Aggregazione,Punto di accesso
216,37.8211004,13.8900636,90022,PA,Palermo,Palermo,via D. Costantino 2,CONSORZIO LABORATORI RIUNITI GAZIANO CAPUANO SC A RL,Medicina di laboratorio - Aggregazione,Punto di accesso
217,37.8472974,13.7620307,90020,PA,Palermo,Palermo,via Dammuso 17,CONSORZIO LABORATORI RIUNITI GAZIANO CAPUANO SC A RL,Medicina di laboratorio - Aggregazione,Punto di accesso
218,38.1724094,13.2399703,90040,PA,Palermo,Palermo,via Villagrazia 105,CONSORZIO LABORATORI RIUNITI GAZIANO CAPUANO SC A RL,Medicina di laboratorio - Aggregazione,Punto di accesso
219,38.118134,13.3484234,90138,PA,Palermo,Palermo,via La Farina 13/C,CONSORZIO LABORATORI RIUNITI GAZIANO CAPUANO SC A RL,Medicina di laboratorio - Aggregazione,Punto di accesso
220,38.0747121,13.5093861,90011,PA,Palermo,Palermo,"Viale Strasburgo, 347/349",CONSORZIO SICILIANO ANALISI S C A RL,Medicina di laboratorio - Aggregazione,Sede Operativa
221,38.1444484,13.3394432,90144,PA,Palermo,Palermo,via Smiriglio 26,CONSORZIO SICILIANO ANALISI S C A RL,Medicina di laboratorio - Aggregazione,Punto di accesso
222,38.0835566,13.5063183,90011,PA,Palermo,Partinico,via P.pe Umberto 150,CONSORZIO SICILIANO ANALISI S C A RL,Medicina di laboratorio - Aggregazione,Punto di accesso
223,38.0789373,13.5102457,90011,PA,Palermo,Palermo,via Papa Sergio 1ř n. 44/N,CONSORZIO SICILIANO ANALISI S C A RL,Medicina di laboratorio - Aggregazione,Punto di accesso
224,38.1359427,13.3621611,90142,PA,Palermo,Palermo,via Lancia di Brolo 92/92A,CONSORZIO SICILIANO ANALISI S C A RL,Medicina di laboratorio - Aggregazione,Punto di accesso
225,37.7972742,14.2019264,90024,PA,Palermo,Palermo,via L. Einaudi 2/10,CONSORZIO SICILIANO ANALISI S C A RL,Medicina di laboratorio - Aggregazione,Punto di accesso
226,37.9890941,13.6978609,90018,PA,Palermo,Palermo,corso Tukory 200,CONSORZIO SICILIANO ANALISI S C A RL,Medicina di laboratorio - Aggregazione,Punto di accesso
227,38.0781124,13.2843021,90046,PA,Palermo,Palermo,via A.Narbone 83,CONSORZIO SICILIANO ANALISI S C A RL,Medicina di laboratorio - Aggregazione,Punto di accesso
228,37.7485053,13.6002911,90025,PA,Palermo,Palermo,via R. Marturano 42,CONSORZIO SICILIANO ANALISI S C A RL,Medicina di laboratorio - Aggregazione,Punto di accesso
229,37.9815981,13.685566,90018,PA,Palermo,Marineo,via Bivona 27,CONSORZIO SICILIANO ANALISI S C A RL,Medicina di laboratorio - Aggregazione,Punto di accesso
230,37.9325452,13.6679844,90012,PA,Palermo,Piana degli Albanesi,via Matteotti 40,CONSORZIO SICILIANO ANALISI S C A RL,Medicina di laboratorio - Aggregazione,Punto di accesso
231,38.19722,13.3121492,90151,PA,Palermo,Trappeto,via Caltanissetta 49-51,CONSORZIO TRISCELE SC A RL,Medicina di laboratorio - Aggregazione,Punto di accesso
232,37.9152706,13.7618213,90020,PA,Palermo,Carini,via A. Curreri 15/17/19,CONSORZIO TRISCELE SC A RL,Medicina di laboratorio - Aggregazione,Punto di accesso
233,37.8118638,13.9993935,90028,PA,Palermo,Balestrate,via Verdi 1,CONSORZIO TRISCELE SC A RL,Medicina di laboratorio - Aggregazione,Punto di accesso
234,38.1488479,13.0869021,90049,PA,Palermo,Palermo,via Enrico Parisi 40,CONSORZIO TRISCELE SC A RL,Medicina di laboratorio - Aggregazione,Punto di accesso
235,37.972886,13.1863285,90048,PA,Palermo,Partinico,via Genova 77,CONSORZIO TRISCELE SC A RL,Medicina di laboratorio - Aggregazione,Punto di accesso
236,38.1401377,13.312315,90145,PA,Palermo,Palermo,via Ragusa Moleti 3,CONSORZIO TRISCELE SC A RL,Medicina di laboratorio - Aggregazione,Punto di accesso
237,38.1967456,13.2491241,90040,PA,Palermo,Palermo,via Paolo Amato 10,CONSORZIO TRISCELE SC A RL,Medicina di laboratorio - Aggregazione,Punto di accesso
238,38.125017,13.3536652,90139,PA,Palermo,Partinico,via Genova n. 34/a ,CONSORZIO TRISCELE SC A RL ,Medicina di laboratorio - Aggregazione,Sede Operativa
239,38.1198344,13.3246737,90135,PA,Palermo,Casteldaccia,VIA ROMA 76,CONSUD SC A RL,Medicina di laboratorio - Aggregazione,Punto di accesso
240,37.9025493,13.4303583,90030,PA,Palermo,Palermo,via S.M.D. Di Majo 13 ,CONSUD SC A RL,Medicina di laboratorio - Aggregazione,Punto di accesso
241,38.0940072,13.3809474,90124,PA,Palermo,Villafrati,via Berlinguer 33,CONSUD SC A RL,Medicina di laboratorio - Aggregazione,Punto Prelievo
242,38.0581643,13.3163625,90030,PA,Palermo,Ventimiglia di Sicilia,via Garibaldi 82,CONSUD SC A RL,Medicina di laboratorio - Aggregazione,Punto Prelievo
243,38.0581643,13.3163625,90030,PA,Palermo,Mezzojuso,via A. Reres 49,CONSUD SC A RL,Medicina di laboratorio - Aggregazione,Punto Prelievo
244,38.1202481,13.3431928,90138,PA,Palermo,Ciminna,piazza P.Mattarella 13,CONSUD SC A RL,Medicina di laboratorio - Aggregazione,Punto Prelievo
245,38.0341331,13.4519722,90036,PA,Palermo,Palermo,via I. Carini 16,CONSUD SC A RL,Medicina di laboratorio - Aggregazione,Punto di accesso
246,38.0854294,13.5075377,90011,PA,Palermo,Palermo,via C. Pisacane 8,CONSUD SC A RL,Medicina di laboratorio - Aggregazione,Punto di accesso
247,38.0854294,13.5075377,90011,PA,Palermo,Palermo,via Maggiore Perni 17,CONSUD SC A RL,Medicina di laboratorio - Aggregazione,Punto di accesso
248,37.9064333,13.4854914,90030,PA,Palermo,Palermo,via Cataldo Parisio 114/116,CONSUD SC A RL,Medicina di laboratorio - Aggregazione,Punto di accesso
249,38.169207,13.3111264,90146,PA,Palermo,Palermo,VIA SUOR MARIA DOLORES DI MAJO N. 13,CONSUD SC A RL ,Medicina di laboratorio - Aggregazione,Sede Operativa
250,38.1955612,13.280207,90148,PA,Palermo,Palermo,VIA AGRIGENTO 41,CRINO LE VI CLIN SRL UNISOCIO,Endocrinologia,Sede Operativa
251,38.169207,13.3111264,90146,PA,Palermo,Palermo,VIA AGRIGENTO 41,CRINOLEVILAB SRL,Medicina nucleare,Sede Operativa
252,38.1518283,13.3309906,90167,PA,Palermo,Borgetto,ROMITELLO - CARRUBELLA SOPRA LE ROCCHE,CRISTO PANTOCRATORE,Comunit Terapeutica Assistita,Sede Operativa
253,37.7010508,13.2631058,90032,PA,Palermo,Trabia,C/DA SALINA SN,CTA NUOVA GENERAZIONE COOPERATIVA SOCIALE A RL,Comunit Terapeutica Assistita,Sede Operativa
254,38.1223044,13.3447344,90141,PA,Palermo,Palermo,VIA VILLA SPERLINGA 3,CUTIS SAS DI ALFREDO CARUSO,Dermatologia,Sede Operativa
255,38.0774264,13.447093,90039,PA,Palermo,Palermo,VIA PADRE G.PUGLISI 30,DENTAL CARE DI GARGANO SRLS,Odontoiatria,Sede Operativa
256,38.1278874,13.2872909,90136,PA,Palermo,Balestrate,VIA ROMA 40,DENTAL WORLD DI PALAZZOLO EUGENIO & C SAS,Odontoiatria,Sede Operativa
257,37.8227356,13.2950736,90034,PA,Palermo,Corleone,VIA PIERSANTI MATTARELLA 7,DENTIST SURGERY SAS DI ODDO MARIO,Odontoiatria,Sede Operativa
258,38.0208863,14.1600995,90010,PA,Palermo,Palermo,P.ZZA G.BELLISSIMA 25-29,DIAGNOSTICA BIOMEDICA SRL,Medicina di laboratorio,Sede Operativa
259,38.0806974,13.3066471,90131,PA,Palermo,Petralia Soprana,VIA VENTICINQUE APRILE 95,DIAVERUM ITALIA SRL ,Dialisi,Sede Operativa
260,37.6788466,13.2703506,90033,PA,Palermo,Bagheria,VIA DANTE 77 CON INGRESSO DA VIA SCARLATTI N.,DIBA SRL,Dialisi,Sede Operativa
261,38.0845172,13.4250904,90122,PA,Palermo,Palermo,P.ZZA GEN. TURBA 76,DOTT MATTEO CARUSO,Odontoiatria,Sede Operativa
262,38.125133,13.3553195,90139,PA,Palermo,Palermo,VIA F. FERRI N. 10,DOTT SERGIO MILAZZO SAS DI MILAZZO SERGIO ,Odontoiatria,Sede Operativa
263,38.1485081,13.3419027,90167,PA,Palermo,Palermo,VIA VANN'ANTO' 18 ,DOTT CAJOZZO GIUSEPPINA LABORATORIO ANALISI CLINICHE SAS,Medicina di laboratorio,Sede Operativa
264,38.1188694,13.3276974,90135,PA,Palermo,Palermo,VIA CRUILLAS 2A,DOTT CANESTRO GIUSEPPE,Odontoiatria,Sede Operativa
265,38.1045379,13.3341653,90129,PA,Palermo,Palermo,VIA MARCHESE UGO 56,DOTT DI GIOVANNI FABRIZIO,Ostetricia e ginecologia,Sede Operativa
266,37.9729035,13.1863558,90048,PA,Palermo,Palermo,VIA VELASQUEZ 38,DOTT FEDERICO INGRIA,Otorinolaringoiatria,Sede Operativa
267,38.1587293,13.1738256,90044,PA,Palermo,Borgetto,VIA LIBERTA' 3/A,DOTT FRANCESCO DAVI',Odontoiatria,Sede Operativa
268,38.1026997,13.3281167,90129,PA,Palermo,Capaci,VIA FRATELLI CAIROLI 3/7/9,DOTT GELUARDI GIULIO - STUDIO ORTOPEDICO FISIOTERAPICO SAS,Presidio ambulatoriali recupero riabilitazione,Sede Operativa
269,38.1099253,13.3791441,90123,PA,Palermo,Palermo,VIA VILLA CAPUTO 4,DOTT LI MULI MARCELLO ,Odontoiatria,Sede Operativa
270,38.1517461,13.3311248,90167,PA,Palermo,Carini,VIA SANSONE 21,DOTT PIETRO CONIGLIARO,Oculistica,Sede Operativa
271,38.1278445,13.3493502,90141,PA,Palermo,Capaci,VIA A. SORDI 12,DOTTSSA ANTONINA SALERNO & C SAS,Medicina di laboratorio,Sede Operativa
272,38.1247686,13.3547562,90139,PA,Palermo,Palermo,VIA G. SERPOTTA 67/B,DOTTSSA REALE M TERESA,Medicina di laboratorio,Sede Operativa
273,38.1517461,13.3311248,90167,PA,Palermo,Belmonte Mezzagno,via Quasimodo 14,DUOLAB SC A RL,Medicina di laboratorio - Aggregazione,Punto di accesso
274,38.1339236,13.3314564,90145,PA,Palermo,Misilmeri,via Papa Leone II 78/80,DUOLAB SC A RL,Medicina di laboratorio - Aggregazione,Punto di accesso
275,38.0942691,13.4029651,90121,PA,Palermo,Misilmeri,VIA PAPA LEONE II N. 78/80,DUOLAB SC A RL ,Medicina di laboratorio - Aggregazione,Sede Operativa
276,37.79329,14.0369151,90020,PA,Palermo,Palermo,VIA DOTTO 12,EMODIALISI PALERMO SRL,Dialisi,Sede Operativa
277,38.104431,13.3682749,90124,PA,Palermo,Trabia,VIA SCIALABBA 8/10,EMOTEAM LABORATORI ANALISI SC A RL,Medicina di laboratorio - Aggregazione,Punto di accesso
278,38.1978311,13.2479322,90040,PA,Palermo,Palermo,VIA LEONARDO DA VINCI 58,EMOTEAM LABORATORI ANALISI SC A RL,Medicina di laboratorio - Aggregazione,Punto di accesso
279,46.3144754,11.0480288,38093,PA,Palermo,Palermo,VIA SACRA FAMIGLIA 24,EMOTEAM LABORATORI ANALISI SC A RL,Medicina di laboratorio - Aggregazione,Punto di accesso
280,38.0786006,13.4402923,90039,PA,Palermo,Palermo,VIA BERGAMO 66,EMOTEAM LABORATORI ANALISI SC A RL,Medicina di laboratorio - Aggregazione,Punto di accesso
281,38.1304919,13.3032677,90136,PA,Palermo,Palermo,"Via San Raffaele Arcangelo 9,9/A e 9/B",EMOTEAM LABORATORI ANALISI SC A RL,Medicina di laboratorio - Aggregazione,Punto di accesso
282,38.0442083,13.1212313,90047,PA,Palermo,Bisacquino,via Fiorenza 5/7/9,EMOTEAM LABORATORI ANALISI SC A RL,Medicina di laboratorio - Aggregazione,Punto di accesso
283,38.1022207,13.35364,90128,PA,Palermo,Palermo,via G. Zappa 142,EMOTEAM LABORATORI ANALISI SC A RL,Medicina di laboratorio - Aggregazione,Punto di accesso
284,37.9319815,13.6717657,90012,PA,Palermo,Alimena,piazza Regina Margherita 20,EMOTEAM LABORATORI ANALISI SC A RL,Medicina di laboratorio - Aggregazione,Punto di accesso
285,38.0968679,13.4254716,90122,PA,Palermo,San Giuseppe Jato,corso Umberto I 133,EMOTEAM LABORATORI ANALISI SC A RL,Medicina di laboratorio - Aggregazione,Punto di accesso
286,38.1327427,13.18329,90044,PA,Palermo,Palermo,piazzale Ungheria 84,EMOTEAM LABORATORI ANALISI SC A RL,Medicina di laboratorio - Aggregazione,Punto di accesso
287,38.1776835,13.2390581,90040,PA,Palermo,Palermo,via Liguria 37,EMOTEAM LABORATORI ANALISI SC A RL,Medicina di laboratorio - Aggregazione,Punto di accesso
288,37.8275099,13.5704395,90020,PA,Palermo,Palermo,via Messina Marine 449/D,EMOTEAM LABORATORI ANALISI SC A RL,Medicina di laboratorio - Aggregazione,Punto di accesso
289,38.0806929,13.517508,90011,PA,Palermo,Palermo,via Villa Heloise 42,EMOTEAM LABORATORI ANALISI SC A RL,Medicina di laboratorio - Aggregazione,Punto di accesso
290,38.1256693,13.3017156,90136,PA,Palermo,Palermo,via del Castoro 9,EMOTEAM LABORATORI ANALISI SC A RL,Medicina di laboratorio - Aggregazione,Punto di accesso
291,38.0492133,13.23435,90046,PA,Palermo,Palermo,via Dante 25,EMOTEAM LABORATORI ANALISI SC A RL,Medicina di laboratorio - Aggregazione,Punto di accesso
292,38.1034223,13.3624757,90127,PA,Palermo,Santa Flavia,via Del Monaco 37,EMOTEAM LABORATORI ANALISI SC A RL,Medicina di laboratorio - Aggregazione,Punto di accesso
293,38.1002979,13.3234535,90131,PA,Palermo,Palermo,VIA A. BORRELLI N. 1/G -,EMOTEAM LABORATORI ANALISI SC A RL ,Medicina di laboratorio - Aggregazione,Sede Operativa
294,38.0758007,13.4408703,90039,PA,Palermo,Castelbuono,C.DA S. GUGLIELMO SN,FAUNI SOCIETA' COOPERATIVA ,Comunit Terapeutica Assistita,Sede Operativa
295,38.1517461,13.3311248,90167,PA,Palermo,Palermo,VIA ORSA MAGGIORE 138/140/142 E 146 CON INGRE,FIDES SRL,Presidio ambulatoriali recupero riabilitazione,Sede Operativa
296,38.1084494,13.3601197,90127,PA,Palermo,Palermo,VIA A. AGOSTINO N. 3-31,FISIOKINESITERAPIA D'ARPA SRL,Presidio ambulatoriali recupero riabilitazione,Sede Operativa
297,38.1955612,13.280207,90148,PA,Palermo,Villabate,VIA CATANIA 13,FISIOMEL CENTRO MEDICO DI FKT DI MESSINA A E LAVORO P SNC,Presidio ambulatoriali recupero riabilitazione,Sede Operativa
298,38.1099253,13.3791441,90123,PA,Palermo,Palermo,VIA G. ROCCELLA 143,GAVERING SNC DEI DOTTORI DI FEDE,Odontoiatria,Sede Operativa
299,37.9048101,13.8157322,90010,PA,Palermo,Palermo,"via G. Pipitone Federico, 129",GDM GRUPPO DIAGNOSTICO MEDITERRANEO SC A RL,Medicina di laboratorio - Aggregazione,Sede Operativa
300,46.3144754,11.0480288,38093,PA,Palermo,Bolognetta,via Mazzini 33/35,GDM GRUPPO DIAGNOSTICO MEDITERRANEO SC A RL,Medicina di laboratorio - Aggregazione,Punto di accesso
301,38.1248922,13.3597174,90139,PA,Palermo,Palermo,via G. Palermo 28,GDM GRUPPO DIAGNOSTICO MEDITERRANEO SC A RL,Medicina di laboratorio - Aggregazione,Punto di accesso
302,38.0909085,13.5394179,90017,PA,Palermo,Palermo,via Imperatore Federico 28,GDM GRUPPO DIAGNOSTICO MEDITERRANEO SC A RL,Medicina di laboratorio - Aggregazione,Punto di accesso
303,38.1351786,13.3377868,90144,PA,Palermo,Palermo,via M.se di Villabianca 120,GDM GRUPPO DIAGNOSTICO MEDITERRANEO SC A RL,Medicina di laboratorio - Aggregazione,Punto di accesso
304,38.1419885,13.3371606,90144,PA,Palermo,Palermo,via G. Puccini 34,GDM GRUPPO DIAGNOSTICO MEDITERRANEO SC A RL,Medicina di laboratorio - Aggregazione,Punto di accesso
305,38.1116082,13.3712722,90123,PA,Palermo,Terrasini,via Vitt. Eman.Orlando 134/136/138,GDM GRUPPO DIAGNOSTICO MEDITERRANEO SC A RL,Medicina di laboratorio - Aggregazione,Punto di accesso
306,38.0968679,13.4254716,90122,PA,Palermo,Cerda,via Roma 24,GDM GRUPPO DIAGNOSTICO MEDITERRANEO SC A RL,Medicina di laboratorio - Aggregazione,Punto di accesso
307,38.1382429,13.3511586,90143,PA,Palermo,Collesano,via Roma 41,GDM GRUPPO DIAGNOSTICO MEDITERRANEO SC A RL,Medicina di laboratorio - Aggregazione,Punto di accesso
308,38.1265367,13.3269717,90145,PA,Palermo,Palermo,Via D. Cimarosa 15,GDM GRUPPO DIAGNOSTICO MEDITERRANEO SC A RL,Medicina di laboratorio - Aggregazione,Punto di accesso
309,37.7948517,14.2053795,90024,PA,Palermo,Palermo,via Sammartino 93,GDM GRUPPO DIAGNOSTICO MEDITERRANEO SC A RL,Medicina di laboratorio - Aggregazione,Punto di accesso
310,38.1063661,13.3381531,90129,PA,Palermo,Palermo,via Sciuti 87/C,GDM GRUPPO DIAGNOSTICO MEDITERRANEO SC A RL,Medicina di laboratorio - Aggregazione,Punto di accesso
311,38.0779371,13.439554,90039,PA,Palermo,Palermo,viale delle Alpi 77,GDM GRUPPO DIAGNOSTICO MEDITERRANEO SC A RL,Medicina di laboratorio - Aggregazione,Punto di accesso
312,38.1290931,13.3485928,90141,PA,Palermo,Palermo,via Cirrincione 10,GDM GRUPPO DIAGNOSTICO MEDITERRANEO SC A RL,Medicina di laboratorio - Aggregazione,Punto di accesso
313,38.1259948,13.3456421,90141,PA,Palermo,Palermo,via Eugenio L'Emiro 20/b.c.,GDM GRUPPO DIAGNOSTICO MEDITERRANEO SC A RL,Medicina di laboratorio - Aggregazione,Punto di accesso
314,38.0831503,13.2915284,90131,PA,Palermo,Palermo,via Libert 56,GDM GRUPPO DIAGNOSTICO MEDITERRANEO SC A RL,Medicina di laboratorio - Aggregazione,Punto di accesso
315,37.6824057,13.6067791,90030,PA,Palermo,Palermo,via Briuccia 84,GDM GRUPPO DIAGNOSTICO MEDITERRANEO SC A RL,Medicina di laboratorio - Aggregazione,Punto di accesso
316,38.0908819,13.3922931,90121,PA,Palermo,Palermo,via Sciuti 174,GENERALAB SC A RL,Medicina di laboratorio - Aggregazione,Punto di accesso
317,38.1172024,13.346473,90138,PA,Palermo,Palermo,via Lentini 10,GENERALAB SC A RL,Medicina di laboratorio - Aggregazione,Punto di accesso
318,38.0780059,13.2838763,90046,PA,Palermo,Palermo,via Messina Marine 431/C,GENERALAB SC A RL,Medicina di laboratorio - Aggregazione,Punto di accesso
319,38.1351786,13.3377868,90144,PA,Palermo,Palermo,via Sciuti 41,GENERALAB SC A RL,Medicina di laboratorio - Aggregazione,Punto di accesso
320,38.0755267,13.5069776,90011,PA,Palermo,Altofonte,via Salvatore Santamaura 3 (ex via C n.3),GENERALAB SC A RL,Medicina di laboratorio - Aggregazione,Punto di accesso
321,38.1488479,13.0869021,90049,PA,Palermo,Palermo,VIA REGIONE SICILIANA 1470 (CDC VILLA SERENA),GENESY SRL,Procreazione Medicalmente Assistita,Sede Operativa
322,38.1497653,13.3345738,90167,PA,Palermo,Palermo,PIAZZA GIULIO CESARE 44,GIUGGYDENT SRL,Odontoiatria,Sede Operativa
323,38.1497653,13.3345738,90167,PA,Palermo,Termini Imerese,PIAZZA DELLE TERME 2,GRAND HOTEL DELLE TERME,Terme,Sede Operativa
324,38.1495815,13.0820702,90049,PA,Palermo,,VIA PRESTISIMONE 4,IDIM CENTRO TAC SRL,Radiologia,Sede Operativa
325,38.085594,13.5010977,90011,PA,Palermo,Palermo,VIA SAN LORENZO COLLI 312,IDS ISTITUTO DIAGNOSTICO SICILIANO SRL,Radioterapia,Sede Operativa
326,38.1270678,13.3523352,90141,PA,Palermo,Petralia Soprana,VIA DELLA REPUBBLICA,IL TRIANGOLO DELLA SALUTE DI GANGI LUCIANO & C SAS ,Presidio ambulatoriali recupero riabilitazione,Sede Operativa
327,37.9804311,12.966351,91011,PA,Palermo,Palermo,VIA NAVE 51,IMPP VILLA NAVE,Presidi di riabilitazione funzionale di portatori disabilit fisiche psichiche e sensoriali,Sede Operativa
328,38.0195934,12.5337626,91100,PA,Palermo,Palermo,via Volontari Italiani del Sangue 8,INTERLAB SCARL,Medicina di laboratorio - Aggregazione,Punto di accesso
329,37.7943333,12.4403242,91025,PA,Palermo,Palermo,via Alagna 2 ,INTERLAB SCARL,Medicina di laboratorio - Aggregazione,Punto di accesso
330,37.8018536,12.4361652,91025,PA,Palermo,Palermo,"via Pacinotti 16, 18 e 24",INTERLAB SCARL,Medicina di laboratorio - Aggregazione,Punto di accesso
331,37.6493304,12.59769,91026,PA,Palermo,Palermo,VIA G. ALAGNA N. 2/C-E ,INTERLAB SCARL ,Medicina di laboratorio - Aggregazione,Sede Operativa
332,37.9783973,12.556211,91027,PA,Palermo,Partinico,VIA SIRACUSA 8,IO COMUNICO SRL,Presidi di riabilitazione funzionale di portatori disabilit fisiche psichiche e sensoriali,Sede Operativa
333,38.0257443,12.5342906,91100,PA,Palermo,Carini,VIA SARDEGNA 4,IPAB CASA DEL FANCIULLO,Presidi di riabilitazione funzionale di portatori disabilit fisiche psichiche e sensoriali,Sede Operativa
334,37.8007837,12.4316914,91025,PA,Palermo,Palermo,VIA RUGGERO SETTIMO 55,ISME ISTITUTO MEDICO EUROPEO,Poliambulatorio,Sede Operativa
335,37.8197019,12.7989684,91018,PA,Palermo,Palermo,VIA G. DAITA 15,ISTITUTO CLINICO LOCOROTONDO SRL,Poliambulatorio,Sede Operativa
336,37.6778279,12.7918004,91022,PA,Palermo,Palermo,VIA ANGIO' 27,ISTITUTO DEI CIECHI OPERE RIUNITE I FLORIO - FA SALAMONE,Presidi di riabilitazione funzionale di portatori disabilit fisiche psichiche e sensoriali,Sede Operativa
337,38.0224316,12.8814042,91014,PA,Palermo,Palermo,VIA P.PE DI PATERNO' 128,ISTITUTO DI FISIOKINESITERAPIA CANDIA SAS,Presidio ambulatoriali recupero riabilitazione,Sede Operativa
338,37.979081,12.9539891,91011,PA,Palermo,Palermo,VIA DANTE 330,ISTITUTO MERIDIONALE ANGIO TAC SRL,Radiologia,Sede Operativa
339,37.7180489,12.4979466,91020,PA,Palermo,Bagheria,VIA LUIGI CAPUANA 12/14,ISTITUTO ODONTOIATRICO DI GIANNICOLO TOMASELLO & C SNC,Odontoiatria,Sede Operativa
340,37.7985349,12.431485,91025,PA,Palermo,Palermo,VIA PADRE GIUSEPPE PUGLISI N. 74/76 ,ISTITUTO POLISPECIALISTICO CLINICO DIAGNOSTICO DR. GIUSEPPE LIGUORI SCARL,Medicina di laboratorio - Aggregazione,Punto di accesso
341,37.7946061,12.4382458,91025,PA,Palermo,Palermo,via dell'Orsa Minore n. 85/87,ISTITUTO POLISPECIALISTICO CLINICO DIAGNOSTICO DR. GIUSEPPE LIGUORI SCARL,Medicina di laboratorio - Aggregazione,Punto di accesso
342,37.7180489,12.4979466,91020,PA,Palermo,Palermo,VIA PADRE GIUSEPPE PUGLISI N. 74/76,ISTITUTO POLISPECIALISTICO CLINICO DIAGNOSTICO DR. GIUSEPPE LIGUORI SCARL ,Medicina di laboratorio - Aggregazione,Sede Operativa
343,37.6566504,12.5905017,91026,PA,Palermo,Bagheria,VIA PLAUTO N. 2,KABAT SRL,Presidio ambulatoriali recupero riabilitazione,Sede Operativa
344,37.8660815,12.5171361,91025,PA,Palermo,Palermo,VIA SAN LORENZO COLLI 316,KAROL ,Comunit Terapeutica Assistita,Sede Operativa
345,37.8050045,12.4449739,91025,PA,Palermo,Villabate,Via GIBILMANNA 50,KAROL ,Residenza Sanitaria Assistita,Sede Operativa
346,38.0222059,12.5479947,91016,PA,Palermo,Palermo,VIA DELLE ALPI Nř66,KOALA SCARL,Medicina di laboratorio - Aggregazione,Punto di accesso
347,37.6614253,12.8104933,91022,PA,Palermo,Camporeale,via L. Caruso 32,KOALA SCARL,Medicina di laboratorio - Aggregazione,Punto di accesso
348,37.6526288,12.6004993,91026,PA,Palermo,Caccamo,C.DA CALABRONE VIA CIRCONVALLAZIONE 187,KURHAUS SRL,Presidio ambulatoriali recupero riabilitazione,Sede Operativa
349,38.0195934,12.5337626,91100,PA,Palermo,Palermo,VIA CUBA 24 A-B-C,LABOR SRL (LABORATORIO ANALISI DOTT G VITRANO SRL),Medicina di laboratorio,Sede Operativa
350,37.650356,12.5964524,91026,PA,Palermo,Caltavuturo,VIA GARIBALDI 51,LABORATORIO ANALISI CLINICHE CALTAVUTURO DI SERRA MARIA & C SAS,Medicina di laboratorio,Sede Operativa
351,37.6499647,12.5985045,91026,PA,Palermo,Montemaggiore Belsito,VIA ARCIPRETE MILITELLO 10,LABORATORIO ANALISI CLINICHE CASTIGLIA CROCIFISSA & C SNC,Medicina di laboratorio,Sede Operativa
352,36.830422,11.9461787,91017,PA,Palermo,Capaci,VIA ROMA 53/55,LABORATORIO ANALISI CLINICHE DELLA DOTTSSA DI GIOVANNA GRAZIA SNC,Medicina di laboratorio,Sede Operativa
353,37.7104057,12.4947628,91020,PA,Palermo,Palermo,VIA IMERA 101,LABORATORIO ANALISI CLINICHE DI IMPELLIZZERI MAURIZIO & C SNC,Medicina di laboratorio,Sede Operativa
354,38.01856,12.520822,91100,PA,Palermo,Bagheria,VIA ANGIO' 106,LABORATORIO ANALISI CLINICHE DOTT ANTONINO DI SALVO E C SAS,Medicina di laboratorio,Sede Operativa
355,37.7913503,12.9761233,91024,PA,Palermo,Palermo,V.LE CAMPANIA 1B,LABORATORIO ANALISI CLINICHE DOTT P MAIORCA,Medicina di laboratorio,Sede Operativa
356,38.0222059,12.5479947,91016,PA,Palermo,Bagheria,C.SO BUTERA 289,LABORATORIO ANALISI CLINICHE DOTTSSA BALISTRERI ROSALIA SAS,Medicina di laboratorio,Sede Operativa
357,37.98042295,12.974239749999999,91011,PA,Palermo,Bagheria,VIA S. ANGELO 7,LABORATORIO ANALISI CLINICHE DOTTSSA CRIVELLO PAOLA SAS DI TOMASELLO AGOSTINO GABRIELE BENITO,Medicina di laboratorio,Sede Operativa
358,38.0184915,12.5240046,91100,PA,Palermo,Palermo,LARGO VILLAURA 5,LABORATORIO ANALISI CLINICHE DOTTSSA SAITO LUCIANA,Medicina di laboratorio,Sede Operativa
359,37.7945782,12.4397485,91025,PA,Palermo,Gangi,VIA NAZIONALE 122,LABORATORIO ANALISI CLINICHE DR DAVIDE FORTUNATO SGROI & C SAS,Medicina di laboratorio,Sede Operativa
360,38.0164847,12.5037974,91100,PA,Palermo,San Mauro Castelverde,VIA UMBERTO 137,LABORATORIO ANALISI CLINICHE DSSA DAINO DOMENICA,Medicina di laboratorio,Sede Operativa
361,37.6743688,12.8074163,91022,PA,Palermo,Termini Imerese,VIA BELVEDERE 10,LABORATORIO ANALISI CLINICHE E MICROBIOLOGICHE DOTT LILIANA MORMINO,Medicina di laboratorio,Sede Operativa
362,37.9813622,12.561159,91027,PA,Palermo,Pollina,VIA CAVOUR 55 FRAZIONE FINALE DI POLLINA,LABORATORIO ANALISI CLINICHE F PUCCIO E CINQUEGRANI SNC,Medicina di laboratorio,Sede Operativa
363,37.7968074,12.4324048,91025,PA,Palermo,Palermo,VIA M.SE DI VILLABIANCA 114,LABORATORIO ANALISI CLINICHE IMPASTATO & C DI SERAFINA IMPASTATO SNC,Medicina di laboratorio,Sede Operativa
364,37.9780797,12.9633549,91011,PA,Palermo,Monreale,VIA DELLA REPUBBLICA 10,LABORATORIO ANALISI CLINICHE LA MANTIA ROSARIA SRL,Medicina di laboratorio,Sede Operativa
365,37.792824,12.4429928,91025,PA,Palermo,Lercara Friddi,P.ZZA UMBERTO I 23,LABORATORIO ANALISI CLINICHE LATTUCA MARIA ASSUNTA & C SAS,Medicina di laboratorio,Sede Operativa
366,37.8027894,12.4427622,91025,PA,Palermo,Palermo,VIA LEONARDO DA VINCI 282,LABORATORIO ANALISI CLINICHE LEONARDO DA VINCI DI GRILLO MASSIMILIANO VITO SAS,Medicina di laboratorio,Sede Operativa
367,38.0184915,12.5240046,91100,PA,Palermo,Caccamo,VIA MARGHERITA 41,LABORATORIO ANALISI CLINICHE MARCELLINO SNC,Medicina di laboratorio,Sede Operativa
368,37.9737306,12.9564469,91011,PA,Palermo,Palermo,VIA IFIGENIA N 27,LABORATORIO ANALISI CLINICHE QUINTINO SELLA SAS DI ARICO' MARIA PIA E C DI CAMPANELLA VIVIANA,Medicina di laboratorio,Sede Operativa
369,37.9759475,12.9554937,91011,PA,Palermo,Sciara,VIA GRATONE 9,LABORATORIO ANALISI CLINICHE SNC DI GALBO FRANCESCA E PASSAFIUME LETIZIA & C,Medicina di laboratorio,Sede Operativa
370,37.9777991,12.9670045,91011,PA,Palermo,Polizzi Generosa,VIA MADDALENA 16,LABORATORIO ANALISI DOTT CAMMARATA SALVATORE,Medicina di laboratorio,Sede Operativa
371,37.6677778,12.7869851,91022,PA,Palermo,Palermo,V.LE DELLE MAGNOLIE 58,LABORATORIO DI ANALISI CLINICHE DOTT GIUSEPPE ALBEGGIANI SAS DEL DOTT GIUSEPPE RANDAZZO,Medicina di laboratorio,Sede Operativa
372,37.9804108,12.9602448,91011,PA,Palermo,Termini Imerese,VIA SEN. BATTAGLIA 36 ,LABORATORIO POLIDIAGNOSTICO SNC,Medicina di laboratorio,Sede Operativa
373,37.9778704,12.9612413,91011,PA,Palermo,San Giuseppe Jato,C.SO UMBERTO I 346/348,LIFE SNC DI GIGANTI GABRIELLA & C,Radiologia,Sede Operativa
374,37.7941709,12.475405,91025,PA,Palermo,Palermo,VIA SCAGLIONE 9,LOCOROTONDO LABS SRL,Medicina di laboratorio - Aggregazione,Punto di accesso
375,37.9908086,12.5561406,91027,PA,Palermo,Isola delle Femmine,via Roma 57,LOCOROTONDO LABS SRL,Medicina di laboratorio - Aggregazione,Punto di accesso
376,37.7932705,12.4450264,91025,PA,Palermo,Palermo,via O. Arena 19-21-23,LOCOROTONDO LABS SRL,Medicina di laboratorio - Aggregazione,Punto di accesso
377,37.6495349,12.5951258,91026,PA,Palermo,Palermo,via Carducci 3/E,LOCOROTONDO LABS SRL,Medicina di laboratorio - Aggregazione,Punto di accesso
378,37.6373476,12.7365584,91021,PA,Palermo,Palermo,via Nicol Gallo 5/B,LOCOROTONDO LABS SRL,Medicina di laboratorio - Aggregazione,Punto di accesso
379,38.0224316,12.8814042,91014,PA,Palermo,Palermo,VIA G. CARDUCCI N. 3- 3/A-B-C-E,LOCOROTONDO LABS SRL ,Medicina di laboratorio - Aggregazione,Sede Operativa
380,38.0147186,12.510174199978305,91100,PA,Palermo,Partinico,V.LE REG.SICILIANA KM1,M MALPIGHI AMBULATORIO DI NEFROLGIA ED EMODIALISI SRL,Dialisi,Sede Operativa
381,38.0186963,12.5369974,91100,PA,Palermo,Palermo,VIA LUIGI CASTIGLIA 5,MADRE DEL DIVINO AMORE,Presidi di riabilitazione funzionale di portatori disabilit fisiche psichiche e sensoriali,Sede Operativa
382,38.0426809,12.6248444,91019,PA,Palermo,Palermo,VIA PERPIGNANO 11/F,MARIA SANFILIPPO GESTITO DALLA SOCIETA' MA'MA SRL,Comunit Terapeutica Assistita,Sede Operativa
383,37.6617566,12.5981785,91026,PA,Palermo,Palermo,VIA M. STABILE 151,MEDICINA NUCLEARE SRL,Medicina nucleare,Sede Operativa
384,37.6692748,12.7872398,91022,PA,Palermo,Palermo,VIA LIBERTA' 171,MEDIDENT DI CAVATAIO GIUSEPPE & C SAS,Odontoiatria,Sede Operativa
385,38.0140941,12.5362382,91100,PA,Palermo,Palermo,VIA M. STABILE 118/A,MICRO BIOS SRL,Medicina di laboratorio,Sede Operativa
386,37.632028,12.7417808,91021,PA,Palermo,Palermo,V.LE REGINA MARGHERITA N. 2/B,MORANA IVANA & ADRAGNA ROSARIO - STUDIO MEDICO DENTISTICO SNC,Odontoiatria,Sede Operativa
387,37.6754532,12.7926023,91022,PA,Palermo,Palermo,VIA FICHIDINDIA 33,NEPHROCARE SPA,Dialisi,Sede Operativa
388,37.9817035,12.960104,91011,PA,Palermo,Palermo,VIA D. COSTANTINO 2,NEPHRON SRL - CENTRO DI DIALISI,Dialisi,Sede Operativa
389,37.6828903,12.7964666,91022,PA,Palermo,Palermo,VIA ALTOFONTE 81,NUOVA CASA DI CURA D'ANNA ,Attivit ambulatoriale case di cura private,Sede Operativa
390,38.0111375,12.5538501,91100,PA,Palermo,Palermo,VIA ALTOFONTE 81,NUOVA CASA DI CURA D'ANNA ,Casa di cura,Sede Operativa
391,37.796739099999996,12.434902579630322,91025,PA,Palermo,Palermo,V.LE REGINA MARGHERITA 5,NUOVA CASA DI CURA DEMMA ,Casa di cura,Sede Operativa
392,37.6335856,12.7472328,91021,PA,Palermo,Misilmeri,VIA TRIESTE 12,NUOVA IMAGING DR PIETRO POLIZZI SRL,Radiologia,Sede Operativa
393,37.6802224,12.7931418,91022,PA,Palermo,Bagheria,VIA EMILIO MURDOLO 16/20,OFTA STUDIO SAS DI GIUSEPPA D'AMICO,Oculistica,Sede Operativa
394,38.018962,12.5583503,91016,PA,Palermo,Bagheria,Via Murdolo 26,OFTA STUDIO SAS DI GIUSEPPA D'AMICO,Oculistica,Sede Operativa Secondaria
395,38.0135089,12.5392044,91100,PA,Palermo,Borgetto,C.DA NOTARMARIO S.N.,OMNIA SERVICES - COOP SOCIALE A RL,Residenza Sanitaria Assistita,Sede Operativa
396,38.0426809,12.6248444,91019,PA,Palermo,Villafrati,VIA TRAINA 36,ORTOKINESIS CENTRO DI FISIOTERPIA SAS DI LICATA VINCENZA & C,Presidio ambulatoriali recupero riabilitazione,Sede Operativa
397,37.8013292,12.439431,91025,PA,Palermo,Palermo,"Via San Lorenzo, n. 75/B -",PAMAFIR SRL,Medicina di laboratorio - Aggregazione,Sede Operativa
398,38.0189092,12.5239275,91100,PA,Palermo,Palermo,via S.Lorenzo 75/A-B,PAMAFIR SRL,Medicina di laboratorio - Aggregazione,Punto di accesso
399,37.9802257,12.5563965,91027,PA,Palermo,Palermo,via Sferracavallo 214,PAMAFIR SRL,Medicina di laboratorio - Aggregazione,Punto di accesso
400,38.01856,12.520822,91100,PA,Palermo,Palermo,VIA S. LORENZO 75/A-B,PAMAFIR SRL POLIAMBULATORIO POLISPECIALISTICO,Poliambulatorio,Sede Operativa
401,37.9135648,12.8604748,91013,PA,Palermo,Palermo,piazza P.pe Camporeale 122,POLILAB SCARL,Medicina di laboratorio - Aggregazione,Punto di accesso
402,37.6391996,12.6154584,91026,PA,Palermo,Palermo,LARGO F. LIONTI N. 8,POLILAB SCARL,Medicina di laboratorio - Aggregazione,Punto di accesso
403,38.0157703,12.5356128,91100,PA,Palermo,Palermo,viale Strasburgo 167,POLILAB SCARL,Medicina di laboratorio - Aggregazione,Punto di accesso
404,37.7533624,13.0091847,91020,PA,Palermo,Palermo,via P.pe di Villafranca 29,POLILAB SCARL,Medicina di laboratorio - Aggregazione,Punto di accesso
405,38.0212747,12.8858972,91014,PA,Palermo,Palermo,LARGO F. LIONTI N. 8,POLILAB SCARL ,Medicina di laboratorio - Aggregazione,Sede Operativa
406,38.0195934,12.5337626,91100,PA,Palermo,Bisacquino,VIA DECANO DI VINCENTI 91,POLIMEDICAL CENTER DI COSTA DOTT GIOVANNI MARCELLO E COSTA BENEDETTO SNC ,Odontoiatria,Sede Operativa
407,37.650356,12.5964524,91026,PA,Palermo,Palermo,VIA DANTE 58,POLIMEDICAL CENTER DI COSTA DOTT GIOVANNI MARCELLO E COSTA BENEDETTO SNC ,Odontoiatria,Sede Operativa
408,37.8035835,12.4474936,91025,PA,Palermo,Villabate,VIA DE GASPERI 255,POSEIDON SC A RL CENTRO FKT,Presidio ambulatoriali recupero riabilitazione,Sede Operativa
409,38.0273736,12.550948,91016,PA,Palermo,Palermo,VIA SPADAFORA 17,PROSPETTIVA SOCIO SANITARIA SRL - VILLA DEI GLICINI RESIDENCE ,Residenza Sanitaria Assistita,Sede Operativa
410,37.8151886,12.8072175,91018,PA,Palermo,Corleone,VIA MADRE TERESA CORTIMIGLIA 22,RAL SRL,Radiologia,Sede Operativa
411,37.9728553,12.9638631,91011,PA,Palermo,Alia,CONTRADA MAGRA,RIABILIA CENTRO DI FISIOKINESITERAPIA - ORTOPEDIA DI ORLANDO PAOLINA & C SAS ,Presidio ambulatoriali recupero riabilitazione,Sede Operativa
412,37.9799197,12.9553915,91011,PA,Palermo,Palermo,VIA CIMBALI 45/A- 45 - 43/C- 43/B - 43/A,RSA GESTITA DALLA COOPERATIVA AZIONE SOCIALE ARL,Residenza Sanitaria Assistita,Sede Operativa
413,37.9728553,12.9638631,91011,PA,Palermo,Pollina,VIA EINAUDI 43,RSA MAGI COPERATIVA SOCIALE ARL,Residenza Sanitaria Assistita,Sede Operativa
414,37.9741523,12.9635392,91011,PA,Palermo,Palermo,VIA AQUINO MOLARA 49,RSA MOLARA GESTITA DALLA SOCIETA EUROMANAGER SANITA SRL,Residenza Sanitaria Assistita,Sede Operativa
415,38.0184915,12.5240046,91100,PA,Palermo,Palermo,VIA DEI QUARTIERI N. 42/46 (PIANO -1 E -2 C,SALUS LAB SC A RL,Medicina di laboratorio - Aggregazione,Sede Operativa
416,37.983543,12.9632498,91011,PA,Palermo,Chiusa Sclafani,VIA UNGHERIA 103 ,SALUS LAB SC A RL,Medicina di laboratorio - Aggregazione,Punto di accesso
417,38.0195271,12.5196112,91100,PA,Palermo,Palermo,via G. Turrisi Colonna 74/76,SALUS LAB SC A RL,Medicina di laboratorio - Aggregazione,Punto di accesso
418,37.7180762,12.5149222,91020,PA,Palermo,Corleone,via Don G. Colletto 74,SALUS LAB SC A RL,Medicina di laboratorio - Aggregazione,Punto di accesso
419,37.2862725,14.9989979,96016,PA,Palermo,Palermo,corso dei Mille 1306/1308,SALUS LAB SC A RL,Medicina di laboratorio - Aggregazione,Punto di accesso
420,37.2935749,15.0001839,96016,PA,Palermo,Palermo,via G. Pitr 139,SALUS LAB SC A RL,Medicina di laboratorio - Aggregazione,Punto di accesso
421,37.0778871,15.2814893,96100,PA,Palermo,Palermo,largo F. Garufi 10,SALUS LAB SC A RL,Medicina di laboratorio - Aggregazione,Punto di accesso
422,37.0753716,15.2815081,96100,PA,Palermo,Lercara Friddi,VIA PADRE CANALE S.N.,SALUSTRA SRL SANTA ROSALIA,Comunit Terapeutica Assistita,Sede Operativa
423,37.0596582,14.8998456,96010,PA,Palermo,Palermo,VIA G. GIUSTI 33,SAMO ONLUS,Assistenza domiciliare persone in fase terminale,Sede Operativa
424,37.2397976,15.2206798,96012,PA,Palermo,Palermo,VIA DELLA LIBERTA' 193,SAMOT ONLUS,Assistenza domiciliare persone in fase terminale,Sede Operativa
425,37.2884849,14.9962145,96016,PA,Palermo,Palermo,P.LE DEL FANTE 16-17,SANICAM PALERMO SPA,Poliambulatorio,Sede Operativa
426,37.0844006,15.2894304,96100,PA,Palermo,Altofonte,VIA S. SANTA MAURA 3,SANITA' FUTURA SRL,Medicina di laboratorio - Aggregazione,Punto di accesso
427,37.0788269,15.157604,96014,PA,Palermo,Palermo,VIA LENTINI 10,SANITA' FUTURA SRL,Medicina di laboratorio - Aggregazione,Punto di accesso
428,37.0778871,15.2814893,96100,PA,Palermo,Palermo,VIA RUGGERO LAURIA 70,SANITA' FUTURA SRL,Medicina di laboratorio - Aggregazione,Punto di accesso
429,36.9104608,15.1450911,96011,PA,Palermo,Palermo,corso Calatafimi 390,SANITA' FUTURA SRL,Medicina di laboratorio - Aggregazione,Punto di accesso
430,37.0846769,15.2737367,96100,PA,Palermo,San Giuseppe Jato,via Aiello 1,SANITA' FUTURA SRL,Medicina di laboratorio - Aggregazione,Punto di accesso
431,36.8215218,14.9502674,96019,PA,Palermo,Carini,via Pio La Torre 36,SANITA' FUTURA SRL,Medicina di laboratorio - Aggregazione,Punto di accesso
432,36.9087658,15.1352412,96011,PA,Palermo,Palermo,via Rosina Anselmi 3/C,SANITA' FUTURA SRL,Medicina di laboratorio - Aggregazione,Punto di accesso
433,37.2305661,14.882929,96015,PA,Palermo,Palermo,VIA VALENTINO COLOMBO N. 6-6/A,SANITA' FUTURA SRL ,Medicina di laboratorio - Aggregazione,Sede Operativa
434,37.1031954,15.2705311,96100,PA,Palermo,Palermo,VIA MESSINA MARINE 431 C,SERENI ORIZZONTI 1 SRL,Residenza Sanitaria Assistita,Sede Operativa
435,37.0828492,15.2713186,96100,PA,Palermo,Trabia,C.DA S.ONOFRIO SN,SERVIZIO TERAPEUTICO RIABILITATIVO RESIDENZIALE (CONGREGAZIONE DEI POVERI SERVI DELLA DIVINA PROVVIDENZA ISTITUTO DON CALABRIA),Strutture riabilitazione ed educative assistenziali per dipendenti sostanze d'abuso,Sede Operativa
436,37.2972763,15.0023493,96016,PA,Palermo,Prizzi,CONTRADA CESARELLA SNC,SICANIA MEDICA SRL,Presidio ambulatoriali recupero riabilitazione,Sede Operativa
437,36.8869751,15.0689757,96017,PA,Palermo,Palermo,VIA BELGIO 2A,SOCIETA' POLISPORTIVA PALERMO ,Presidi di riabilitazione funzionale di portatori disabilit fisiche psichiche e sensoriali,Sede Operativa
438,37.0887202,15.158181,96014,PA,Palermo,Palermo,VIA CATANIA 17,SOCIETA DENTALIN SRL,Odontoiatria,Sede Operativa
439,36.9142042,15.1436032,96011,PA,Palermo,Palermo,P.ZZA CASTELNUOVO 26,SOCIETA DI ODONTOIATRIA DELLA DOTTORESSA MARINA MOTISI & C SAS,Odontoiatria,Sede Operativa
440,37.0770127,15.2927987,96100,PA,Palermo,Palermo,VIA BELGIO 2A,SOCIETA POLISPORTIVA PALERMO,Presidio ambulatoriali recupero riabilitazione,Sede Operativa
441,37.0802972,15.1574867,96014,PA,Palermo,Palermo,VIA P.PE DI PANTELLERIA 23/25,SPERANZA 2000 COOP SOCIALE A RL,Presidi di riabilitazione funzionale di portatori disabilit fisiche psichiche e sensoriali,Sede Operativa
442,37.2431863,15.2218315,96012,PA,Palermo,Palermo,VIA RAFFAELLO 9,STUDIIO DERMATOLOGICO DOTT SERGIO RUSIGNUOLO SRL,Dermatologia,Sede Operativa
443,37.0807192,15.2747115,96100,PA,Palermo,Palermo,VIA TESTASECCA 3,STUDIO ANALISI CLINICHE DOTT L MESSINA & C SNC DI GERLANDA GRACEFFA,Medicina di laboratorio,Sede Operativa
444,37.0834195,15.1463892,96014,PA,Palermo,Palermo,VIA LOMBARDIA 20 ,STUDIO CARDIOLOGICO DOTT ALESSIA D'ANTONI SAS,Cardiologia,Sede Operativa
445,45.0642224,7.6374534,10141,PA,Palermo,Bagheria,VIA G. PEPE 30,STUDIO CARDIOLOGICO DOTT ANDREA IMBURGIA SAS,Cardiologia,Sede Operativa
446,37.079871,15.298014,96100,PA,Palermo,Palermo,VIA AGOSTINO GALLO 46,STUDIO CARDIOLOGICO DOTT ANDREA LA ROSA SRL,Cardiologia,Sede Operativa
447,37.1003721,15.2697374,96100,PA,Palermo,Isola delle Femmine,VIA CUTINO 57,STUDIO CARDIOLOGICO DOTT CLAUDIO ALIBANI SAS,Cardiologia,Sede Operativa
448,37.1003721,15.2697374,96100,PA,Palermo,,P.ZZA F. BELLIPANNI 4,STUDIO CARDIOLOGICO DOTT COSIMO MICELI & C SAS,Cardiologia,Sede Operativa
449,37.1003721,15.2697374,96100,PA,Palermo,Villabate,P.ZZA UMBERTO I 61,STUDIO CARDIOLOGICO DOTT DI STEFANO PASQUALE SRL,Cardiologia,Sede Operativa
450,37.0796526,15.2783072,96100,PA,Palermo,Palermo,V.LE MICHELANGELO 1930,STUDIO CARDIOLOGICO DOTT ENRICO SIMONETTI SAS,Cardiologia,Sede Operativa
451,37.092311,15.2732944,96100,PA,Palermo,Partinico,VIA KENNEDY 23,STUDIO CARDIOLOGICO DOTT FRANCESCO GIULIANO,Cardiologia,Sede Operativa
452,37.0651666,15.2891037,96100,PA,Palermo,Palermo,VIA VOLONTARI ITALIANI DEL SANGUE 10,STUDIO CARDIOLOGICO DOTT MARCELLO RAINERI SAS,Cardiologia,Sede Operativa
453,36.8203494,14.946075,96019,PA,Palermo,Bagheria,VIA B. MATTARELLA 138,STUDIO CARDIOLOGICO DOTT MARCO DI FRANCO SAS,Cardiologia,Sede Operativa
454,36.9125482,15.1320464,96011,PA,Palermo,Capaci,VIA J.F.KENNEDY 91,STUDIO CARDIOLOGICO DOTT PIETRO LONGO SAS,Cardiologia,Sede Operativa
455,36.7145172,15.0879156,96018,PA,Palermo,Palermo,VIALE REGIONE SICILIANA 303,STUDIO CARDIOLOGICO DOTT ROSOLINO IMMORDINO,Cardiologia,Sede Operativa
456,36.7174158,15.0984749,96018,PA,Palermo,Palermo,VIA MESSINA MARINE 429/B,STUDIO CARDIOLOGICO MONTAINA DOTT GIOVANNI SAS,Cardiologia,Sede Operativa
457,37.0804598,15.2810705,96100,PA,Palermo,Carini,VIA S. LORENZO 52,STUDIO DENTISTICO DEL DOTT SERGIO PICONE & C SAS,Odontoiatria,Sede Operativa
458,37.1777527,15.1288663,96010,PA,Palermo,Capaci,VIA STEFANO LA MOTTA 45,STUDIO DENTISTICO DOTT ANGELO FRENNA & C SAS,Odontoiatria,Sede Operativa
459,37.2294631,15.2211419,96012,PA,Palermo,Vicari,VIA CANGIALOSI 59,STUDIO DENTISTICO DOTT ANTONINO GUTTILLA,Odontoiatria,Sede Operativa
460,37.2283958,14.8804608,96015,PA,Palermo,Termini Imerese,VIA E. IANNELLI 33,STUDIO DENTISTICO DOTT DANIELE GERVASI,Odontoiatria,Sede Operativa
461,37.0623549,14.90617,96010,PA,Palermo,Bagheria,VIA PAPA GIOVANNI XXIII 9,STUDIO DENTISTICO DOTT SCARDINA ROSA ALBA,Odontoiatria,Sede Operativa
462,37.2879817,14.9980295,96016,PA,Palermo,Palermo,VIA CASTELLANA 39/41,STUDIO DENTISTICO GIACOMO GALIOTO,Odontoiatria,Sede Operativa
463,37.036155,15.0609661,96010,PA,Palermo,Monreale,VIA PROVINCIALE 46,STUDIO DENTISTICO MONREALDENTAL SRL SOCIETA TRA PROFESSIONISTI ,Odontoiatria,Sede Operativa
464,37.2972763,15.0023493,96016,PA,Palermo,Palermo,VIA DEL VESPRO 64,STUDIO DERMATOLOGICO SAS DI TERESI VINCENZO,Dermatologia,Sede Operativa
465,37.0778871,15.2814893,96100,PA,Palermo,Palermo,C.SO CALATAFIMI 961,STUDIO DI CARDIOLOGIA DOTT AURORA GIRGENTI SAS,Cardiologia,Sede Operativa
466,37.0766001,15.283591,96100,PA,Palermo,Monreale,VIA A. MORO 62,STUDIO DI FKT BOBATH SAS DI D'ANTONIO MELUCCIA,Presidio ambulatoriali recupero riabilitazione,Sede Operativa
467,37.2925592,14.9980115,96016,PA,Palermo,Villabate,V.LE EUROPA 188/C ,STUDIO DI FKT BOBATH SAS DI D'ANTONIO MELUCCIA,Presidio ambulatoriali recupero riabilitazione,Sede Operativa
468,36.9127996,15.1443039,96011,PA,Palermo,Palermo,VIA BELGIO 55,STUDIO DI ODONTOIATRIA DEI DOTTORI GIOVANNI ABATE ED EMANUELE FERDINANDO SNC,Odontoiatria,Sede Operativa
469,37.2910911,15.0017414,96016,PA,Palermo,Bolognetta,VIA VITT. EMANUELE 63,STUDIO DI ODONTOIATRIA DOTTSSA SCLAFANI ,Odontoiatria,Sede Operativa
470,37.2266867,14.879958,96015,PA,Palermo,Palermo,"VIA F. CRISPI , 84",STUDIO DI RADIODIAGNOSTICA FINAZZO SRL,Radiologia,Sede Operativa
471,36.8881903,15.0655635,96017,PA,Palermo,Palermo,VIA GIORGIO ARCOLEO 42/C,STUDIO DI RADIOLOGIA DOTT GIORGIO DE MICHELE SRL,Radiologia,Sede Operativa
472,36.8936569,15.0706512,96017,PA,Palermo,Vicari,VIA C.A. DALLA CHIESA 2,STUDIO DI RADIOLOGIA DOTT MARIO FEO SRL,Radiologia,Sede Operativa
473,37.0802848,15.1556897,96014,PA,Palermo,Palermo,VIA MAGG. TOSELLI 87,STUDIO DI RADIOLOGIA DOTTSSA GABRIELLA CAFFARELLI,Radiologia,Sede Operativa
474,36.7161672,15.0908481,96018,PA,Palermo,Palermo,via Sferracavallo 122,STUDIO MEDICO DIAGNOSTICO ALBANESE-DI PIAZZA SCARL,Medicina di laboratorio - Aggregazione,Punto di accesso
475,37.2316139,15.2187671,96012,PA,Palermo,Palermo,VIA MESSINA MARINE 431/C,STUDIO MEDICO DIAGNOSTICO ALBANESE-DI PIAZZA SCARL,Medicina di laboratorio - Aggregazione,Punto di accesso
476,36.716419,15.0894939,96018,PA,Palermo,Palermo,via Vanvitelli 114,STUDIO MEDICO DIAGNOSTICO ALBANESE-DI PIAZZA SCARL,Medicina di laboratorio - Aggregazione,Punto di accesso
477,36.8189138,14.9516134,96019,PA,Palermo,Palermo,via G.le Sirtori 15/17,STUDIO MEDICO DIAGNOSTICO ALBANESE-DI PIAZZA SCARL,Medicina di laboratorio - Aggregazione,Punto di accesso
478,37.069883,15.2837889,96100,PA,Palermo,Palermo,via Notarbartolo 35,STUDIO MEDICO DIAGNOSTICO ALBANESE-DI PIAZZA SCARL,Medicina di laboratorio - Aggregazione,Punto di accesso
479,37.16217,15.0339313,96010,PA,Palermo,Palermo,via Laurana 115,STUDIO MEDICO DIAGNOSTICO ALBANESE-DI PIAZZA SCARL,Medicina di laboratorio - Aggregazione,Punto di accesso
480,37.0847517,15.2810053,96100,PA,Palermo,,via Prestisimone 21,STUDIO MEDICO DIAGNOSTICO ALBANESE-DI PIAZZA SCARL,Medicina di laboratorio - Aggregazione,Punto di accesso
481,36.910596,15.1314585,96011,PA,Palermo,Palermo,via Michele Amari 35/37,STUDIO MEDICO DIAGNOSTICO ALBANESE-DI PIAZZA SCARL,Medicina di laboratorio - Aggregazione,Punto di accesso
482,37.0753716,15.2815081,96100,PA,Palermo,Palermo,via Roma 118,STUDIO MEDICO DIAGNOSTICO ALBANESE-DI PIAZZA SCARL,Medicina di laboratorio - Aggregazione,Punto di accesso
483,37.0753716,15.2815081,96100,PA,Palermo,Palermo,VIA MICHELE AMARI N. 35/37,STUDIO MEDICO DIAGNOSTICO ALBANESE-DI PIAZZA SCARL ,Medicina di laboratorio - Aggregazione,Sede Operativa
484,37.1803,15.1287922,96010,PA,Palermo,Partinico,VIA VITTORIO EMANUELE ORLANDO 9,STUDIO MEDICO DIAGNOSTICO OTORINOLARINGOIATRICO SAS DI LOMBARDO FRANCESCO & C.,Otorinolaringoiatria,Sede Operativa
485,37.2739755,15.0170495,96013,PA,Palermo,Palermo,VIA IMPERATORE FEDERICO 66/A-68,STUDIO MEDICO FISIOTERAPIA OLIMPIA SRL,Presidio ambulatoriali recupero riabilitazione,Sede Operativa
486,37.2920921,15.0001419,96016,PA,Palermo,Palermo,VIA CILEA 19,STUDIO MEDICO FKT NIGITO SRL,Presidio ambulatoriali recupero riabilitazione,Sede Operativa
487,37.293106,14.9968529,96016,PA,Palermo,Palermo,VIA EMPEDOCLE RESTIVO 39,STUDIO MEDICO OCULISTICO DOTT FAUSTO BELLINA SAS DI BELLINA FAUSTO & C,Oculistica,Sede Operativa
488,37.3029561,15.0021726,96016,PA,Palermo,Palermo,VIA ANTONIO UGO 29,STUDIO MEDICO ODONTOIATRICO DOTTSSA SCRIMA VINCENZA & C SNC,Odontoiatria,Sede Operativa
489,37.1803,15.1287922,96010,PA,Palermo,Santa Flavia,VIA SOLUNTO 34 E VIA CARLO PATTI 44,STUDIO MEDICO POLISPECIALISTICO,Poliambulatorio,Sede Operativa
490,37.080912,15.1525695,96014,PA,Palermo,Palermo,VIA MESSINA MARINE 429/B,STUDIO OCULISTICO AMODEI DEL DOTT G AMODEI & C SAS,Oculistica e chirurgia ambulatoriale,Sede Operativa
491,37.0610449,14.9101199,96010,PA,Palermo,Palermo,VIA P.PE DI BELMONTE 78,STUDIO OCULISTICO ARCUDI SRL,Oculistica,Sede Operativa
492,36.7174158,15.0984749,96018,PA,Palermo,Palermo,VIA GENERALE STREVA 45,STUDIO OCULISTICO CAMPO DEL DOTT ANTONINO CAMPO & C SAS,Oculistica,Sede Operativa
493,37.2876659,14.9970645,96016,PA,Palermo,Palermo,"Via Giuseppe Gandolfo, n. 21",STUDIO OCULISTICO DELLA DOTTSSA ANTONELLA AGLIALORO & C SRL,Oculistica,Sede Operativa
494,37.2279663,15.2212408,96012,PA,Palermo,Cefal Diana,VIA PRESTISIMONE 17,STUDIO OCULISTICO DOTT GIOVANNI LO BIANCO SAS,Oculistica,Sede Operativa
495,37.2279663,15.2212408,96012,PA,Palermo,Palermo,VIA TORINO 27/G,STUDIO OCULISTICO VACCARO SRL,Oculistica e chirurgia ambulatoriale,Sede Operativa
496,37.0778871,15.2814893,96100,PA,Palermo,Palermo,VIA A. MIRAGLIA 1/3,STUDIO ODONTOIATRICO DELLA DOTT ROMANO ELOISA SAS,Odontoiatria,Sede Operativa
497,37.2773103,15.0125113,96013,PA,Palermo,Palermo,C.SO CALATAFIMI 419,STUDIO ODONTOIATRICO DOTT A VECCHIONI,Odontoiatria,Sede Operativa
498,36.8870576,15.074381,96017,PA,Palermo,Termini Imerese,VIA A. MORO 2,STUDIO ODONTOIATRICO DOTT ALBERTO LOFORTI,Odontoiatria,Sede Operativa
499,37.2891971,14.9993488,96016,PA,Palermo,Bagheria,VIA G.NNI GIRGENTI 115,STUDIO ODONTOIATRICO DOTT ALFONSO BONGIOVANNI SNC,Odontoiatria,Sede Operativa
500,37.0705047,15.2810235,96100,PA,Palermo,Camporeale,C.SO UMBERTO I 184,STUDIO ODONTOIATRICO DOTT CACIOPPO VINCENZO ,Odontoiatria,Sede Operativa
501,37.0816263,15.1494788,96014,PA,Palermo,Palermo,VIA N. MORELLO 3,STUDIO ODONTOIATRICO DOTT ELIO BUZZANCA,Odontoiatria,Sede Operativa
502,37.0818109,15.1524517,96014,PA,Palermo,Palermo,VIA COSTANTINO NIGRA 5,STUDIO ODONTOIATRICO DOTT ERIKA ALONGE SAS,Odontoiatria,Sede Operativa
503,37.0818638,15.2870999,96100,PA,Palermo,Palermo,VIA CATANIA 166,STUDIO ODONTOIATRICO DOTT MICHELE PADERNI,Odontoiatria,Sede Operativa
504,37.0821738,15.2869373,96100,PA,Palermo,Palermo,VIA A. VENEZIANO 120,STUDIO ODONTOIATRICO DOTT RICCIARDI FILIPPO,Odontoiatria,Sede Operativa
505,37.1009392,15.11950826414373,96010,PA,Palermo,Palermo,P.ZZA AMENDOLA 31,STUDIO ODONTOIATRICO DOTT RIZZO SALVATORE,Odontoiatria,Sede Operativa
506,37.1031954,15.2705311,96100,PA,Palermo,Palermo,VIA LIBERO GRASSI 27 - PIANO RIALZATO,STUDIO ODONTOIATRICO DOTT SCAFIDI GIUSEPPE,Odontoiatria,Sede Operativa
507,37.087695,15.2724487,96100,PA,Palermo,Castronovo di Sicilia,VIA KASSAR 48,STUDIO ODONTOIATRICO DOTTSSA TIRRITO M CARMELA,Odontoiatria,Sede Operativa
508,37.0921613,15.2673553,96100,PA,Palermo,Palermo,VIA CONTE FEDERICO 46,STUDIO ORL DI PIETRO LO BUE E C SAS,Otorinolaringoiatria,Sede Operativa
509,37.3029561,15.0021726,96016,PA,Palermo,Palermo,VIA CONTESSA ADELASIA 36,STUDIO ORL SAS DEL DOTTOR PIETRO PECORARO,Otorinolaringoiatria,Sede Operativa
510,37.0702712,15.2838308,96100,PA,Palermo,Palermo,VIA EMILIA 1 E VIA EMPLEDOCLE RESTIVO 17/A,STUDIO OTORINOLARINGOIATRIA DEL DOTT ELIO MANNINO SAS,Otorinolaringoiatria,Sede Operativa
511,37.0841847,15.2523102,96100,PA,Palermo,Palermo,Via Delle Croci 2b/c/d/e/f,STUDIO RADIOLOGICO DEL DOTTOR SALVATORE GARGANO SRL,Endocrinologia - Medicina Nucleare,Sede Operativa
512,37.098724,15.2722638,96100,PA,Palermo,Monreale,VIA VENERO 173,STUDIO RADIOLOGICO DEL DOTTOR SALVATORE GARGANO SRL,Radiologia,Sede Operativa
513,37.0610449,14.9101199,96010,PA,Palermo,Bagheria,VIA I TRAVERSA DI VIA LA MASA 33M,STUDIO RX S GENTILE E C SNC,Radiologia,Sede Operativa
514,37.0923588,15.2768468,96100,PA,Palermo,Palermo,VIA CILEA 15,TAC NUCLEAR SRL,Radiologia,Sede Operativa
515,37.0732968,15.2818004,96100,PA,Palermo,Palermo,via Tasso 30/32,UNILAB SRL,Medicina di laboratorio - Aggregazione,Punto di accesso
516,37.2892664,14.9993268,96016,PA,Palermo,Palermo,viale delle Magnolie 18/A,UNILAB SRL,Medicina di laboratorio - Aggregazione,Punto di accesso
517,37.245396,15.2201664,96012,PA,Palermo,Palermo,"Via Ausonia, n.43 -",UNILAB SRL,Medicina di laboratorio - Aggregazione,Punto di accesso
518,37.0813843,15.2759398,96100,PA,Palermo,Palermo,"VIA AUSONIA, N.43",UNILAB SRL ,Medicina di laboratorio - Aggregazione,Sede Operativa
519,36.8189138,14.9516134,96019,PA,Palermo,Villafrati,"S.P. 77 KM 20,800",VILLA DELLE PALME SRL,Residenza Sanitaria Assistita,Sede Operativa
520,36.9082801,15.1296381,96011,PA,Palermo,Terrasini,VIA PITRE' 3/5,VILLA GLORIA - GESTIONE MEDIGEST SRL,Comunit Terapeutica Assistita,Sede Operativa
521,36.8209389,14.9505099,96019,PA,Palermo,Bagheria,VIA BAGNERA 14,VILLA S TERESA DIAGNOSTICA PER IMMAGINI E RADIOTERAPIA SRL,Radiologia,Sede Operativa
522,37.0619488,14.90449,96010,PA,Palermo,Palermo,VIA GEN.LE CARLO ALBERTO DALLA CHIESA 32,VITAN DEL DOTT BELLAFIORE DARIO SAS,Dermatologia,Sede Operativa
523,37.1192005,14.9396105,96010,PA,Palermo,Palermo,VIA XX SETTEMBRE 64,VITES SRL,Gastroenterologia,Sede Operativa
524,37.1262956,14.8534848,96010,TP,Trapani,Castelvetrano,C.DA STRASATTO CICIRELLO S.S. 115,AIAS ONLUS SEZ DI CASTELVETRANO - CENTRO DI RIABILITAZIONE,Presidi di riabilitazione funzionale di portatori disabilit fisiche psichiche e sensoriali,Sede Operativa
525,37.027378,15.0718071,96010,TP,Trapani,Marsala,C.DA RAKALIA 220/TER,CENTRO DI SOLIDARIETˇ FARO,Strutture riabilitazione ed educative assistenziali per dipendenti sostanze d'abuso,Sede Operativa
526,36.7144729,15.0868999,96018,TP,Trapani,Trapani,VIA V. SEGESTA 1/3 - CORPO B E CORPO C,SANT'ANNA DELLA SALUS SRL,Residenza Sanitaria Assistita,Sede Operativa
527,37.0709196,15.283999,96100,TP,Trapani,Alcamo,VIA DON RIZZO 12,AMBULATORIO DERMATOLOGICO DOTT MURGOLO DOMENICO,Dermatologia,Sede Operativa
528,37.1559098,15.188162492464787,96010,TP,Trapani,Mazara del Vallo,C.SO VITT. VENETO 250/A,AMBULATORIO DERMATOLOGICO DOTT STUPPIA SALVATORE,Dermatologia,Sede Operativa
529,37.0725818,15.2822373,96100,TP,Trapani,Marsala,C.SO A. GRAMSCI 162,AMBULATORIO DI CARDIOLOGIA DEL DOTT MARIO ARINI & C SAS,Cardiologia,Sede Operativa
530,37.08042305,15.150336077257425,96014,TP,Trapani,Trapani,VIA ALCAMO 33 ,AMBULATORIO DI ORTOPEDIA DOTT MARIO MATRAXIA SRL,Ortopedia,Sede Operativa
531,36.8204603,14.9536177,96019,TP,Trapani,Marsala,VIA SAN GIOVANNI BOSCO 70 ,AMBULATORIO DI PATOLOGIA CLINICA SRL ,Medicina di laboratorio,Sede Operativa
532,36.8188049,14.950047,96019,TP,Trapani,Marsala,VIA XIX LUGLIO 27,AMBULATORIO DI RADIODIAGNOSTICA DOTT GRASSELLINO DOMENICO SRL,Radiologia,Sede Operativa
533,37.0336305,15.0633589,96010,TP,Trapani,Mazara del Vallo,VIA FURIA TRANQUILLINA 3,AMBULATORIO GRAFFEO IANNONE GIANLUIGI,Otorinolaringoiatria,Sede Operativa
534,37.0857128,15.2841615,96100,TP,Trapani,Paceco,VIA UGO FOSCOLO 45,AMBULATORIO MEDICO DENTISTICO DEI DOTTORI DE GREGORIO LEONARDO E DE GREGORIO MICHELE,Odontoiatria,Sede Operativa
535,37.0852246,15.2900126,96100,TP,Trapani,Trapani,VIA ORTI 14 ,AMBULATORIO MEDICO DENTISTICO DEI DOTTORI DE GREGORIO LEONARDO E DE GREGORIO MICHELE,Odontoiatria,Sede Operativa
536,37.2960044,15.0043588,96013,TP,Trapani,Marsala,VIA SALINISTI 1,AMBULATORIO NEUROLOGICO DOTT PIETRO RUGGIERI,Neurologia,Sede Operativa
537,37.0859606,15.2732374,96100,TP,Trapani,Mazara del Vallo,VIA HOPPS Nř 7,AMBULATORIO OCULISTICO LA GRUTTA SRL,Oculistica,Sede Operativa
538,37.0722099,15.2807697,96100,TP,Trapani,Salemi,VIA PAOLO OLIVIERI 59,AMBULATORIO ODONTOIATRICO DEL DOTT GAETANO BARBIERA & C SAS,Odontoiatria,Sede Operativa
539,37.0726563,15.2824882,96100,TP,Trapani,Castelvetrano,VIA FRA' GIOVANNI PANTALEO 18,AMBULATORIO ODONTOIATRICO DR GIUSEPPE VINCI DELLA DSSA IGNAZIA DI BLASI E C SAS,Odontoiatria,Sede Operativa
540,37.2891686,14.9976866,96016,TP,Trapani,Mazara del Vallo,VIA S. MARIA DELLE GIUMMARRE 57/A,AMBULATORIO OSTETRICIA E GINECOLOGIA DELLA DOTTSSA MARINO MARIA ROSA & C SAS,Ostetricia e ginecologia,Sede Operativa
541,37.0919955,15.2758793,96100,TP,Trapani,Custonaci,VIA ZARA 128,ANALISI BIOLOGICHE E RADIOIMMUNOLOGICHE DOTT C VENZA SRL,Medicina di laboratorio - Aggregazione,Punto Prelievo
542,37.0922437,15.2925175,96100,TP,Trapani,Castellammare del Golfo,VIA MONDELLO 40,ANALISI BIOLOGICHE E RADIOIMMUNOLOGICHE DOTT C VENZA SRL,Medicina di laboratorio - Aggregazione,Punto Prelievo
543,37.2357911,15.219964,96012,TP,Trapani,Alcamo,VIA G. MARTINO 49/B,ANALISI BIOLOGICHE E RADIOIMMUNOLOGICHE DOTT C VENZA SRL ,Medicina di laboratorio - Aggregazione,Sede Operativa
544,36.9096903,15.1359057,96011,TP,Trapani,Castellammare del Golfo,VIA ZINGARO 3 ,ANALISI BIOLOGICHE E RADIOIMMUNOLOGICHE DOTT C VENZA SRL ,Medicina di laboratorio - Aggregazione,Sede Operativa
545,37.1567222,15.1825486,96010,TP,Trapani,Castellammare del Golfo,C.SO GARIBALDI 95 ,ANALISI CLINICHE DOTT SSA ESPOSITO ROSALBA SNC,Medicina di laboratorio,Sede Operativa
546,37.0694452,15.2854832,96100,TP,Trapani,Trapani,P.ZZA GEN. SCIO 8,APOLLONIA DI MANGIAPANE ANTONINO & C SAS,Odontoiatria,Sede Operativa
547,37.0778871,15.2814893,96100,TP,Trapani,Mazara del Vallo,CONTRADA DECCARO - BAGLIO LA LOGGETTA,ASSOCIAZIONE CASA DEI GIOVANI ONLUS ,Strutture riabilitazione ed educative assistenziali per dipendenti sostanze d'abuso,Sede Operativa
548,37.0796311,15.2780726,96100,TP,Trapani,Alcamo,VIA TURI SERAFINO 15,AUTOS GESTITO DA SOCIETA ATI AEQUITAS SRLS - ASDA SRLS ,Centro diurno per soggetti affetti da disturbo autistico,Sede Operativa
549,37.2463175,15.2203634,96012,TP,Trapani,Alcamo,Contrada Corga,AZIENDA TERMALE TERME DI GORGA ALCAMO,Terme,Sede Operativa
550,37.0729554,15.2828134,96100,TP,Trapani,Castellammare del Golfo,"Contrada Ponte Bagni, 1",AZIENDA TERMALE TERME SEGESTANE,Terme,Sede Operativa
551,37.0802485,15.2776297,96100,TP,Trapani,Petrosino,via Pio La Torre 9,BIOLAB SCARL,Medicina di laboratorio - Aggregazione,Punto di accesso
552,37.0757374,15.2856875,96100,TP,Trapani,Marsala,via Sibilla 13 ,BIOLAB SCARL,Medicina di laboratorio - Aggregazione,Punto di accesso
553,37.1007668,15.2693275,96100,TP,Trapani,Marsala,via G. Verdi 36/38,BIOLAB SCARL,Medicina di laboratorio - Aggregazione,Punto di accesso
554,37.0796526,15.2783072,96100,TP,Trapani,Marsala,via dello Sbarco 78 ,BIOLAB SCARL,Medicina di laboratorio - Aggregazione,Punto di accesso
555,36.9052742,15.1278651,96011,TP,Trapani,Petrosino,VIA PIO LA TORRE N. 9,BIOLAB SCARL ,Medicina di laboratorio - Aggregazione,Sede Operativa
556,36.8647269,14.7586788,0,TP,Trapani,Mazara del Vallo,VIA DANTE FIORENTINO 41,BIOMEDICAL SRL,Medicina di laboratorio,Sede Operativa
557,36.9416924,14.5284654,97019,TP,Trapani,Santa Ninfa,VIA GIARDINELLO 23,CAPP COOPERATIVA SOCIALE,Presidi di riabilitazione funzionale di portatori disabilit fisiche psichiche e sensoriali,Sede Operativa
558,36.7846511,14.9089254,97014,TP,Trapani,Marsala,C.DA DARA 744/D,CASA DI CURA MORANA ,Attivit ambulatoriale case di cura private,Sede Operativa
559,36.7930704,14.7049215,97018,TP,Trapani,Marsala,"CONTRADA DARA, 744/D",CASA DI CURA MORANA ,Casa di cura,Sede Operativa
560,36.8366004,14.7614244,0,TP,Trapani,Marsala,C.DA DARA 744/D,CASA DI CURA MORANA ,Medicina di laboratorio,Sede Operativa
561,37.0477278,14.7964238,97010,TP,Trapani,Trapani,VIA FALCONE BORSELLINO 30,CASA DI CURA MORANA ,Medicina nucleare,Sede Operativa
562,37.08900645,14.7623926216763,97010,TP,Trapani,Marsala,VIA TRAPANI 161,CASA DI CURA MORANA ,Residenza Sanitaria Assistita,Sede Operativa
563,36.9086939,14.7124217,97100,TP,Trapani,Erice,VIA SALITA SANT'ANNA 34,CASA DI CURA SANT'ANNA,Casa di cura,Sede Operativa
564,36.7843571,14.6888925,97018,TP,Trapani,Erice,VIA MANZONI 83,CASA DI CURA VILLA DEI GERANI,Casa di cura,Sede Operativa
565,37.0326228,14.7014948,0,TP,Trapani,Castelvetrano,VIALE DEI TEMPLI 116,CASA DI CURA VITTORIA ,Casa di cura,Sede Operativa
566,36.908952,14.7167435,97100,TP,Trapani,Trapani,VIA DEI VESPRI 118,CASA VERDE SRL - CENTRO CHIRURGICO,Oculistica e chirurgia ambulatoriale,Sede Operativa
567,36.910857,14.7247038,97100,TP,Trapani,Calatafimi Segesta,via G. Garibaldi 56/58 ,CEDIS CENTRO DIAGNOSTICO SANITARIO SC A RL,Medicina di laboratorio - Aggregazione,Punto di accesso
568,36.9279766,14.7003696,97100,TP,Trapani,Trapani,via Alcamo 13 ,CEDIS CENTRO DIAGNOSTICO SANITARIO SC A RL,Medicina di laboratorio - Aggregazione,Punto di accesso
569,36.9451019,14.6065385,97013,TP,Trapani,Trapani,via Cap. Sieli 1 ,CEDIS CENTRO DIAGNOSTICO SANITARIO SC A RL,Medicina di laboratorio - Aggregazione,Punto di accesso
570,36.9257205,14.7131227,97100,TP,Trapani,Mazara del Vallo,via A. Castiglione 27 ,CEDIS CENTRO DIAGNOSTICO SANITARIO SC A RL,Medicina di laboratorio - Aggregazione,Punto di accesso
571,36.7299662,14.8483219,97016,TP,Trapani,Mazara del Vallo,via Toniolo 13,CEDIS CENTRO DIAGNOSTICO SANITARIO SC A RL,Medicina di laboratorio - Aggregazione,Punto di accesso
572,36.7962025,14.7065569,97018,TP,Trapani,Marsala,via Alighieri 175,CEDIS CENTRO DIAGNOSTICO SANITARIO SC A RL,Medicina di laboratorio - Aggregazione,Punto di accesso
573,36.9267289,14.7293225,97100,TP,Trapani,Trapani,VIA CAP. SIELI N. 1 ,CEDIS CENTRO DIAGNOSTICO SANITARIO SC A RL ,Medicina di laboratorio - Aggregazione,Sede Operativa
574,36.9267289,14.7293225,97100,TP,Trapani,Mazara del Vallo,VIA CASTELVETRANO 37/B,CENTRO AMBULATORIALE DI NEFROLOGIA E DIALISI GALENO SRL,Dialisi,Sede Operativa
575,36.7936211,14.702235,97018,TP,Trapani,Pantelleria,C.SO UMBERTO I 112 ,CENTRO ANALISI CLINICHE CANINO SRL,Medicina di laboratorio,Sede Operativa
576,37.0245981,14.4911971,97011,TP,Trapani,Petrosino,VIA X LUGLIO 4/A- 6,CENTRO BENESSERE PETROSINO SRL,Presidio ambulatoriali recupero riabilitazione,Sede Operativa
577,36.8664654,14.7623896,0,TP,Trapani,Trapani,VIA CONV. SAN F.SCO DI PAOLA 73 ,CENTRO BIOANALITICO DOTTOR AMENTA DI AMENTA & C SAS,Medicina di laboratorio,Sede Operativa
578,37.0245981,14.4911971,97011,TP,Trapani,Alcamo,VIA T. TASSO 37,CENTRO CLINICO E DIAGNOSTICO OFTALMOLOGICO SAS DELLA DOTTSSA MALTESE ANNA,Oculistica,Sede Operativa
579,36.9514715,14.6021169,97013,TP,Trapani,Alcamo,CORSO GEN. MEDICI 148/A,CENTRO DI EMODIALISI DOTT MUCARIA SRL,Dialisi,Sede Operativa
580,36.9086939,14.7124217,97100,TP,Trapani,Valderice,VIALE EUROPA 23,CENTRO DI EMODIALISI DOTT MUCARIA SRL,Dialisi,Sede Operativa
581,36.927195,14.7115591,97100,TP,Trapani,Trapani,V.LE FALCONE BORSELLINO 30,CENTRO DI MEDICINA NUCLEARE SRL,Medicina nucleare,Sede Operativa
582,36.7320418,14.8486848,97016,TP,Trapani,Alcamo,VIA UMBERTO GIORDANO 84,CENTRO DI RADIOLOGIA MEDICA SRL,Radiologia,Sede Operativa
583,36.9576098,14.6046472,97013,TP,Trapani,Trapani,VIA CASCIO CORTESE 9 ,CENTRO DI RICERCHE MEDICHE CANGEMI E DITTA SRL,Presidio ambulatoriali recupero riabilitazione,Sede Operativa
584,36.9457279,14.6056473,97013,TP,Trapani,Marsala,CDA FONTANELLE 47,CENTRO DI SOLIDARIETˇ FARO,Strutture riabilitazione ed educative assistenziali per dipendenti sostanze d'abuso,Sede Operativa
585,36.7257313,14.8433566,97016,TP,Trapani,Trapani,VIA ALCAMO 24,CENTRO DIAGNOSTICO RADIOLOGICO CAMPIONE SRL,Radiologia,Sede Operativa
586,36.9480892,14.5249373,97019,TP,Trapani,Mazara del Vallo,"C.DA PONTE SERRONI S.S. 115 KM. 49,300",CENTRO EMODIALISI MAZARESE SRL,Dialisi,Sede Operativa
587,36.9226821,14.7175067,97100,TP,Trapani,Valderice,VIA G. FALCONE 8,CENTRO FISIOKINESITERAPIA SALUS VALDERICE SAS,Presidio ambulatoriali recupero riabilitazione,Sede Operativa
588,36.7261105,14.844613,97016,TP,Trapani,Erice,VIA MANZONI 74,CENTRO MEDICO CARDIOLOGICO MARANZANO SAS DEL DOTT PIETRO MARANZANO & C,Cardiologia,Sede Operativa
589,36.9462075,14.6064818,97013,TP,Trapani,Alcamo,VIA PORTA PALERMO 123,CENTRO MEDICO DI FISIOTERAPIA ED ESTETICA DI PALAZZOLO CARLO ROMEO & C SNC,Presidio ambulatoriali recupero riabilitazione,Sede Operativa
590,36.91777825,14.723203821424429,97100,TP,Trapani,Castelvetrano,VIA L. CENTONZE 7,CENTRO MEDICO DI FKT CANGEMI DI CLAUDIA CARADONNA SAS,Presidio ambulatoriali recupero riabilitazione,Sede Operativa
591,36.7257313,14.8433566,97016,TP,Trapani,Erice,V.LE DELLE PROVINCE 33,CENTRO MEDICO DI FKT E RIABILITAZIONE SOLARIUM SAS,Presidio ambulatoriali recupero riabilitazione,Sede Operativa
592,36.9061448,14.716843,97100,TP,Trapani,Trapani,VIA VESPRI 157,CENTRO MEDICO DOTT BUSCAINO II CUORE PER LA VITA DEL DOTT MASSIMO CASTELLI & C SNC,Cardiologia,Sede Operativa
593,36.8366004,14.7614244,0,TP,Trapani,Marsala,VIA S. GIOVANNI BOSCO 48,CENTRO MEDICO SPECIALISTICO CAMMARATA SRL,Oculistica,Sede Operativa
594,36.837038,14.7702691,0,TP,Trapani,Erice,VIA MANZONI 124 ,CENTRO OCULISTICO DOTT ROMANO SALVATORE & C. SAS,Oculistica,Sede Operativa
595,36.9483099,14.5277805,97019,TP,Trapani,Paceco,VIA PLACIDO FARDELLA 65,CENTRO ODONTOIATRICO DR FRANCESCO D'AGATE & C SNC,Odontoiatria,Sede Operativa
596,36.7853029,14.9032863,97014,TP,Trapani,Mazara del Vallo,C.SO A. DIAZ 67,CENTRO ODONTOIATRICO TOMMASO CARMELA & C SAS,Odontoiatria,Sede Operativa
597,36.9294512,14.6996048,97100,TP,Trapani,Trapani,CORSO VITTORIO EMANUELE 60,CENTRO ODONTOSTOMATOLOGICO DI LAUDICINA ANTONINO E CORBASI GIUSEPPA & C SAS,Odontoiatria,Sede Operativa
598,36.9579601,14.6053874,97013,TP,Trapani,Castelvetrano,VIA SEGGIO 154,CENTRO POLIDIAGNOSTICO MULTIMEDICAL DI LI CAUSI NICOLA & C SRL,Poliambulatorio (Radiologia -Neurologia - Ostetricia e Ginecologia),Sede Operativa
599,46.3144754,11.0480288,38093,TP,Trapani,Paceco,VIA GOLDONI 14,CENTRO SALUS PACHECO SRL,Presidio ambulatoriali recupero riabilitazione,Sede Operativa
600,38.171265,15.4155033,98043,TP,Trapani,Mazara del Vallo,C.DA SANTA MARIA DI GESU' SN,CENTRO SANVITO SRL,Presidio ambulatoriali recupero riabilitazione,Sede Operativa
601,38.1309221,14.9453514,98060,TP,Trapani,Marsala,VIA SCIPIONE L'AFRICANO 19,CENTRO SERENA FKT GALANTI SRL,Presidio ambulatoriali recupero riabilitazione - Ortopedia e Traumatologia,Sede Operativa
602,38.171265,15.4155033,98043,TP,Trapani,Marsala,VIA F. ANGILERI 2,CEPAID SOC COOP SOCIALE ONLUS,Presidi di riabilitazione funzionale di portatori disabilit fisiche psichiche e sensoriali,Sede Operativa
603,38.1420428,14.9662343,98066,TP,Trapani,Alcamo,VIA VITTORIO VENETO 266 ,CHECK UP ANALISI CLINICHE E RIA DI D CUTINO & C SNC,Medicina di laboratorio,Sede Operativa
604,38.1649548,15.266684,98044,TP,Trapani,Marsala,via Mario Gandolfo 16,CLERALAB SCARL,Medicina di laboratorio - Aggregazione,Punto di accesso
605,38.1328745,15.5228628,98128,TP,Trapani,Marsala,VIA DEGLI ATLETI N. 16,CLERALAB SCARL,Medicina di laboratorio - Aggregazione,Sede Operativa
606,37.8267061,15.2571663,98039,TP,Trapani,Marsala,VIA G.MAZZINI 127/A,CLINICA ODONTOIATRICA PARRINELLO SRL,Odontoiatria,Sede Operativa
607,38.1505651,15.2243434,98051,TP,Trapani,Trapani,VIA VESPRI 104 ,CLINILAB SRL,Medicina di laboratorio,Sede Operativa
608,38.1546234,15.2322896,98051,TP,Trapani,Alcamo,VIA V. GUARRASI 3,CONSORZIO AREA VITA - RSA BONIFATO,Residenza Sanitaria Assistita,Sede Operativa
609,38.1489037,15.2160103,98051,TP,Trapani,Alcamo,VIA DELLE MAGNOLIE 18/D,CONSORZIO DI COOPERATIVE SOCIALI A RL SISIFO ,Assistenza domiciliare persone in fase terminale,Sede Operativa
610,38.2241575,15.2383651,98057,TP,Trapani,Alcamo,VIA GAETANO MARTINO N. 22,CONSORZIO LABORATORI RIUNITI ALCAMO ARL,Medicina di laboratorio - Aggregazione,Sede Operativa
611,38.0942731,14.972577,98064,TP,Trapani,Alcamo,via Ferrantelli 62 ,CONSORZIO LABORATORI RIUNITI ALCAMO ARL,Medicina di laboratorio - Aggregazione,Punto di accesso
612,38.2165677,15.235239,98057,TP,Trapani,Castelvetrano,via Campobello 34/38 ,CONSORZIO LABORATORI RIUNITI ALCAMO ARL,Medicina di laboratorio - Aggregazione,Punto di accesso
613,38.0141416,14.3508137,98077,TP,Trapani,Alcamo,corso VI Aprile 273 ,CONSORZIO LABORATORI RIUNITI ALCAMO ARL,Medicina di laboratorio - Aggregazione,Punto di accesso
614,37.9370946,15.3598004,98028,TP,Trapani,Alcamo,via Simone Corleo 12,CONSORZIO LABORATORI RIUNITI ALCAMO ARL,Medicina di laboratorio - Aggregazione,Punto di accesso
615,38.1346188,15.1698009,98050,TP,Trapani,Castellammare del Golfo,via Q. Sella 1,CONSORZIO LABORATORI RIUNITI ALCAMO ARL,Medicina di laboratorio - Aggregazione,Punto di accesso
616,38.1557989,14.8276085,98061,TP,Trapani,Calatafimi Segesta,via Arc. N. Bonaiuto 1/C ,CONSORZIO LABORATORI RIUNITI ALCAMO ARL,Medicina di laboratorio - Aggregazione,Punto di accesso
617,46.3144754,11.0480288,38093,TP,Trapani,Trapani,VIA TEN. ALBERTI 21,CONSULTORIO FAMILIARE CRESCERE INSIEME,Consultorio,Sede Operativa
618,38.142212,14.975469,98066,TP,Trapani,Marsala,CONTRADA SAN SILVESTRO 452/A,CSR CONSORZIO SICILIANO DI RIABILITAZIONE A RL,Presidi di riabilitazione funzionale di portatori disabilit fisiche psichiche e sensoriali,Sede Operativa
619,38.2216627,15.2386107,98057,TP,Trapani,Mazara del Vallo,C/DA ALTAVILLA MALPASSO VIA GIACOMO MANZU',CSR CONSORZIO SICILIANO DI RIABILITAZIONE A RL,Presidi di riabilitazione funzionale di portatori disabilit fisiche psichiche e sensoriali,Sede Operativa
620,38.1959397,15.5511806,98122,TP,Trapani,Paceco,VIA CAMPO SPORTIVO 5,CSR CONSORZIO SICILIANO DI RIABILITAZIONE A RL,Presidi di riabilitazione funzionale di portatori disabilit fisiche psichiche e sensoriali,Sede Operativa
621,38.1844032,15.5560874,98123,TP,Trapani,Salemi,C.DA S.FRANCESCO DI PAOLA,CSR CONSORZIO SICILIANO DI RIABILITAZIONE A RL,Presidi di riabilitazione funzionale di portatori disabilit fisiche psichiche e sensoriali,Sede Operativa
622,38.1689497,15.5366466,98147,TP,Trapani,Alcamo,PIANO S. MARIA C/O CONVENTO SANTA MARIA,CSR CONSORZIO SICILIANO DI RIABILITAZIONE A RL,Presidi di riabilitazione funzionale di portatori disabilit fisiche psichiche e sensoriali,Sede Operativa
623,37.901398,15.2937135,98030,TP,Trapani,Gibellina,via Archimede nř1,CTA SALUS SRL,Comunit Terapeutica Assistita,Sede Operativa
624,38.1549984,14.8289752,98061,TP,Trapani,Marsala,VIA F. CRISPI 86,DAY HOSPITAL SRL,Poliambulatorio (Medicina di laboratorio e Radiologia),Sede Operativa
625,38.065187,14.6239559,98076,TP,Trapani,Marsala,CORSO CALATAFIMI 110,DENTAL SALUS DI AGATA ANNA TUMMINELLO & C. S.N.C.,Odontoiatria,Sede Operativa
626,38.147022,14.9663485,98066,TP,Trapani,Mazara del Vallo,VIA VALERIA 40,DERMOESTETICA ZAMBITO SAS DI ZAMBITO SPADARO LUANA & C,Dermatologia,Sede Operativa
627,38.2091665,15.5576401,98100,TP,Trapani,Campobello di Mazara,VIA S. GIOVANNI BOSCO 3,DIAGNOSTICA DI RADIOLOGIA MEDICA SRL,Radiologia,Sede Operativa
